[{"weighting": "28", "companies": "\u4eba\u6c11\u653f\u5e9c", "Address": [{"address_components": [{"long_name": "68", "short_name": "68", "types": ["street_number"]}, {"long_name": "Beijing West Road", "short_name": "Beijing W Rd", "types": ["route"]}, {"long_name": "Gulou Qu", "short_name": "Gulou Qu", "types": ["political", "sublocality", "sublocality_level_1"]}, {"long_name": "Nanjing Shi", "short_name": "Nanjing Shi", "types": ["locality", "political"]}, {"long_name": "Jiangsu Sheng", "short_name": "Jiangsu Sheng", "types": ["administrative_area_level_1", "political"]}, {"long_name": "China", "short_name": "CN", "types": ["country", "political"]}, {"long_name": "210024", "short_name": "210024", "types": ["postal_code"]}], "formatted_address": "68 Beijing W Rd, Gulou Qu, Nanjing Shi, Jiangsu Sheng, China, 210024", "geometry": {"location": {"lat": 32.061707, "lng": 118.763232}, "location_type": "ROOFTOP", "viewport": {"northeast": {"lat": 32.06305598029149, "lng": 118.7645809802915}, "southwest": {"lat": 32.0603580197085, "lng": 118.7618830197085}}}, "place_id": "ChIJP6y8_l6LtTURcY3VcMvDoww", "plus_code": {"compound_code": "3Q67+M7 Gulou, Nanjing, Jiangsu, China", "global_code": "8P4W3Q67+M7"}, "types": ["establishment", "point_of_interest"]}], "types": "Government_Sectors"}, {"weighting": "9", "companies": "\u8054\u90a6\u653f\u5e9c", "Address": [{"address_components": [{"long_name": "United States", "short_name": "US", "types": ["country", "political"]}], "formatted_address": "United States", "geometry": {"bounds": {"northeast": {"lat": 71.5388001, "lng": -66.885417}, "southwest": {"lat": 18.7763, "lng": 170.5957}}, "location": {"lat": 37.09024, "lng": -95.712891}, "location_type": "APPROXIMATE", "viewport": {"northeast": {"lat": 49.38, "lng": -66.94}, "southwest": {"lat": 25.82, "lng": -124.39}}}, "place_id": "ChIJCzYy5IS16lQRQrfeQ5K5Oxw", "types": ["country", "political"]}], "types": "Government_Sectors"}, {"weighting": "37", "companies": "\u7f8e\u56fd\u653f\u5e9c", "Address": [{"address_components": [{"long_name": "United States", "short_name": "US", "types": ["country", "political"]}], "formatted_address": "United States", "geometry": {"bounds": {"northeast": {"lat": 71.5388001, "lng": -66.885417}, "southwest": {"lat": 18.7763, "lng": 170.5957}}, "location": {"lat": 37.09024, "lng": -95.712891}, "location_type": "APPROXIMATE", "viewport": {"northeast": {"lat": 49.38, "lng": -66.94}, "southwest": {"lat": 25.82, "lng": -124.39}}}, "place_id": "ChIJCzYy5IS16lQRQrfeQ5K5Oxw", "types": ["country", "political"]}], "types": "Government_Sectors"}, {"weighting": "15", "companies": "\u5546\u6807\u5c40", "Address": [{"address_components": [{"long_name": "600", "short_name": "600", "types": ["street_number"]}, {"long_name": "Dulany Street", "short_name": "Dulany St", "types": ["route"]}, {"long_name": "Eisenhower East", "short_name": "Eisenhower East", "types": ["neighborhood", "political"]}, {"long_name": "Alexandria", "short_name": "Alexandria", "types": ["locality", "political"]}, {"long_name": "Virginia", "short_name": "VA", "types": ["administrative_area_level_1", "political"]}, {"long_name": "United States", "short_name": "US", "types": ["country", "political"]}, {"long_name": "22314", "short_name": "22314", "types": ["postal_code"]}], "formatted_address": "600 Dulany St, Alexandria, VA 22314, USA", "geometry": {"location": {"lat": 38.80123529999999, "lng": -77.0640103}, "location_type": "ROOFTOP", "viewport": {"northeast": {"lat": 38.80258428029149, "lng": -77.06266131970851}, "southwest": {"lat": 38.7998863197085, "lng": -77.06535928029152}}}, "place_id": "ChIJBWAJ4Zuw44kR5gpPoNGY3cc", "plus_code": {"compound_code": "RW2P+F9 Alexandria, Mason, VA, United States", "global_code": "87C4RW2P+F9"}, "types": ["establishment", "point_of_interest"]}], "types": "Government_Sectors"}, {"weighting": "1", "companies": "\u6d59\u6c5f\u7701\u653f\u5e9c", "Address": [{"address_components": [{"long_name": "Faxiang Alley", "short_name": "Faxiang Alley", "types": ["route"]}, {"long_name": "Xihu", "short_name": "Xihu", "types": ["political", "sublocality", "sublocality_level_1"]}, {"long_name": "Hangzhou", "short_name": "Hangzhou", "types": ["locality", "political"]}, {"long_name": "Zhejiang", "short_name": "Zhejiang", "types": ["administrative_area_level_1", "political"]}, {"long_name": "China", "short_name": "CN", "types": ["country", "political"]}], "formatted_address": "China, Zhejiang, Hangzhou, Xihu, Faxiang Alley, \u6cd5\u76f8\u5df7", "geometry": {"location": {"lat": 30.224673, "lng": 120.130916}, "location_type": "GEOMETRIC_CENTER", "viewport": {"northeast": {"lat": 30.2260219802915, "lng": 120.1322649802915}, "southwest": {"lat": 30.2233240197085, "lng": 120.1295670197085}}}, "place_id": "ChIJ_SHOWjd9SzQRmB2Wa8VR13c", "plus_code": {"compound_code": "64FJ+V9 Xihu, Hangzhou, Zhejiang, China", "global_code": "8Q2264FJ+V9"}, "types": ["establishment", "point_of_interest"]}], "types": "Government_Sectors"}, {"weighting": "3", "companies": "\u6e56\u5357\u7701\u4eba\u6c11\u653f\u5e9c", "Address": [{"address_components": [{"long_name": "Tianxin", "short_name": "Tianxin", "types": ["political", "sublocality", "sublocality_level_1"]}, {"long_name": "Changsha", "short_name": "Changsha", "types": ["locality", "political"]}, {"long_name": "Hunan", "short_name": "Hunan", "types": ["administrative_area_level_1", "political"]}, {"long_name": "China", "short_name": "CN", "types": ["country", "political"]}], "formatted_address": "China, Hunan, Changsha, Tianxin, \u6e58\u5e9c\u8def", "geometry": {"location": {"lat": 28.112634, "lng": 112.983382}, "location_type": "GEOMETRIC_CENTER", "viewport": {"northeast": {"lat": 28.1139829802915, "lng": 112.9847309802915}, "southwest": {"lat": 28.1112850197085, "lng": 112.9820330197085}}}, "place_id": "ChIJYzxteG61IDQRWUYGZgqWZPs", "plus_code": {"compound_code": "4X7M+39 Tianxin, Changsha, Hunan, China", "global_code": "7PWJ4X7M+39"}, "types": ["embassy", "establishment", "fire_station", "local_government_office", "point_of_interest"]}], "types": "Government_Sectors"}, {"weighting": "4", "companies": "\u56db\u5ddd\u7701\u4eba\u6c11\u653f\u5e9c", "Address": [{"address_components": [{"long_name": "Duyuan Street", "short_name": "Duyuan St", "types": ["route"]}, {"long_name": "Jinjiang", "short_name": "Jinjiang", "types": ["political", "sublocality", "sublocality_level_1"]}, {"long_name": "Chengdu", "short_name": "Chengdu", "types": ["locality", "political"]}, {"long_name": "Sichuan", "short_name": "Sichuan", "types": ["administrative_area_level_1", "political"]}, {"long_name": "China", "short_name": "CN", "types": ["country", "political"]}], "formatted_address": "China, Sichuan, Chengdu, Jinjiang, Duyuan St, \u7763\u9662\u8def30\u53f7", "geometry": {"location": {"lat": 30.651652, "lng": 104.075931}, "location_type": "GEOMETRIC_CENTER", "viewport": {"northeast": {"lat": 30.6530009802915, "lng": 104.0772799802915}, "southwest": {"lat": 30.6503030197085, "lng": 104.0745820197085}}}, "place_id": "ChIJMxxM5D_F7zYRC0-FqtfVGow", "plus_code": {"compound_code": "M32G+M9 Jinjiang, Chengdu, Sichuan, China", "global_code": "8P26M32G+M9"}, "types": ["establishment", "point_of_interest"]}], "types": "Government_Sectors"}, {"weighting": "5", "companies": "\u6210\u90fd\u5e02\u4eba\u6c11\u653f\u5e9c", "Address": [{"address_components": [{"long_name": "2", "short_name": "2", "types": ["street_number"]}, {"long_name": "Renmin West Road", "short_name": "Renmin W Rd", "types": ["route"]}, {"long_name": "LuoMaShi", "short_name": "LuoMaShi", "types": ["neighborhood", "political"]}, {"long_name": "Qingyang Qu", "short_name": "Qingyang Qu", "types": ["political", "sublocality", "sublocality_level_1"]}, {"long_name": "Chengdu Shi", "short_name": "Chengdu Shi", "types": ["locality", "political"]}, {"long_name": "Sichuan Sheng", "short_name": "Sichuan Sheng", "types": ["administrative_area_level_1", "political"]}, {"long_name": "China", "short_name": "CN", "types": ["country", "political"]}, {"long_name": "610041", "short_name": "610041", "types": ["postal_code"]}], "formatted_address": "2 Renmin W Rd, LuoMaShi, Qingyang Qu, Chengdu Shi, Sichuan Sheng, China, 610041", "geometry": {"location": {"lat": 30.658709, "lng": 104.064783}, "location_type": "ROOFTOP", "viewport": {"northeast": {"lat": 30.6600579802915, "lng": 104.0661319802915}, "southwest": {"lat": 30.6573600197085, "lng": 104.0634340197085}}}, "place_id": "ChIJOYJrriTF7zYRuDWIJHemgnE", "plus_code": {"compound_code": "M357+FW Qingyang, Chengdu, Sichuan, China", "global_code": "8P26M357+FW"}, "types": ["establishment", "point_of_interest"]}], "types": "Government_Sectors"}, {"weighting": "24", "companies": "\u56fd\u9645\u4f1a\u8bae\u4e2d\u5fc3", "Address": [{"address_components": [{"long_name": "8\u53f7", "short_name": "8\u53f7", "types": ["street_number"]}, {"long_name": "Beichen East Road", "short_name": "Beichen E Rd", "types": ["route"]}, {"long_name": "YaYunCun", "short_name": "YaYunCun", "types": ["neighborhood", "political"]}, {"long_name": "Chaoyang Qu", "short_name": "Chaoyang Qu", "types": ["political", "sublocality", "sublocality_level_1"]}, {"long_name": "Beijing Shi", "short_name": "Beijing Shi", "types": ["administrative_area_level_1", "political"]}, {"long_name": "China", "short_name": "CN", "types": ["country", "political"]}, {"long_name": "100101", "short_name": "100101", "types": ["postal_code"]}], "formatted_address": "8 Beichen E Rd, YaYunCun, Chaoyang Qu, China, 100101", "geometry": {"location": {"lat": 39.989192, "lng": 116.402665}, "location_type": "ROOFTOP", "viewport": {"northeast": {"lat": 39.9905409802915, "lng": 116.4040139802915}, "southwest": {"lat": 39.9878430197085, "lng": 116.4013160197085}}}, "place_id": "ChIJTf4lEMZU8DURXq0A5JGyDos", "plus_code": {"compound_code": "XCQ3+M3 Chaoyang, Beijing, China", "global_code": "8PFRXCQ3+M3"}, "types": ["establishment", "point_of_interest"]}], "types": "Government_Sectors"}, {"weighting": "1", "companies": "\u5fb7\u56fd\u653f\u5e9c", "Address": [{"address_components": [{"long_name": "1", "short_name": "1", "types": ["street_number"]}, {"long_name": "Willy-Brandt-Stra\u00dfe", "short_name": "Willy-Brandt-Stra\u00dfe", "types": ["route"]}, {"long_name": "Mitte", "short_name": "Mitte", "types": ["political", "sublocality", "sublocality_level_1"]}, {"long_name": "Berlin", "short_name": "Berlin", "types": ["locality", "political"]}, {"long_name": "Berlin", "short_name": "Berlin", "types": ["administrative_area_level_1", "political"]}, {"long_name": "Germany", "short_name": "DE", "types": ["country", "political"]}, {"long_name": "10557", "short_name": "10557", "types": ["postal_code"]}], "formatted_address": "Willy-Brandt-Stra\u00dfe 1, 10557 Berlin, Germany", "geometry": {"location": {"lat": 52.52016279999999, "lng": 13.3692701}, "location_type": "ROOFTOP", "viewport": {"northeast": {"lat": 52.5215117802915, "lng": 13.3706190802915}, "southwest": {"lat": 52.5188138197085, "lng": 13.3679211197085}}}, "place_id": "ChIJPzzOMrlRqEcRTzIrJIsAfa4", "plus_code": {"compound_code": "G9C9+3P Berlin, Germany", "global_code": "9F4MG9C9+3P"}, "types": ["establishment", "point_of_interest"]}], "types": "Government_Sectors"}, {"weighting": "2", "companies": "\u56fd\u5bb6\u7edf\u8ba1\u5c40", "Address": [{"address_components": [{"long_name": "West 3rd Ring Road South", "short_name": "W 3rd Ring Rd S", "types": ["route"]}, {"long_name": "Fengtai", "short_name": "Fengtai", "types": ["political", "sublocality", "sublocality_level_1"]}, {"long_name": "Beijing", "short_name": "Beijing", "types": ["administrative_area_level_1", "political"]}, {"long_name": "China", "short_name": "CN", "types": ["country", "political"]}, {"long_name": "100073", "short_name": "100073", "types": ["postal_code"]}], "formatted_address": "China, Beijing, Fengtai, W 3rd Ring Rd S, \u897f\u4e09\u73af\u5357\u8def\u75326\u53f7 \u90ae\u653f\u7f16\u7801: 100073", "geometry": {"location": {"lat": 39.882618, "lng": 116.312556}, "location_type": "GEOMETRIC_CENTER", "viewport": {"northeast": {"lat": 39.8839669802915, "lng": 116.3139049802915}, "southwest": {"lat": 39.8812690197085, "lng": 116.3112070197085}}}, "place_id": "ChIJqaEPWGVO8DURlXC6Esr15RU", "plus_code": {"compound_code": "V8M7+22 Fengtai, Beijing, China", "global_code": "8PFRV8M7+22"}, "types": ["establishment", "point_of_interest"]}], "types": "Government_Sectors"}, {"weighting": "12", "companies": "\u5317\u4eac\u5e02\u653f\u5e9c", "Address": [{"address_components": [{"long_name": "2", "short_name": "2", "types": ["street_number"]}, {"long_name": "Zhengyi Road", "short_name": "Zhengyi Rd", "types": ["route"]}, {"long_name": "Dongcheng Qu", "short_name": "Dongcheng Qu", "types": ["political", "sublocality", "sublocality_level_1"]}, {"long_name": "Beijing Shi", "short_name": "Beijing Shi", "types": ["administrative_area_level_1", "political"]}, {"long_name": "China", "short_name": "CN", "types": ["country", "political"]}], "formatted_address": "2 Zhengyi Rd, Dongcheng Qu, Beijing Shi, China", "geometry": {"location": {"lat": 39.904211, "lng": 116.407395}, "location_type": "ROOFTOP", "viewport": {"northeast": {"lat": 39.90555998029149, "lng": 116.4087439802915}, "southwest": {"lat": 39.90286201970849, "lng": 116.4060460197085}}}, "place_id": "ChIJMyfj2LlS8DUR5MK2x1vfOPc", "plus_code": {"compound_code": "WC34+MX Dongcheng, Beijing, China", "global_code": "8PFRWC34+MX"}, "types": ["establishment", "point_of_interest"]}], "types": "Government_Sectors"}, {"weighting": "7", "companies": "\u5317\u4eac\u5e02\u4eba\u6c11\u653f\u5e9c", "Address": [{"address_components": [{"long_name": "2", "short_name": "2", "types": ["street_number"]}, {"long_name": "Zhengyi Road", "short_name": "Zhengyi Rd", "types": ["route"]}, {"long_name": "Dongcheng Qu", "short_name": "Dongcheng Qu", "types": ["political", "sublocality", "sublocality_level_1"]}, {"long_name": "Beijing Shi", "short_name": "Beijing Shi", "types": ["administrative_area_level_1", "political"]}, {"long_name": "China", "short_name": "CN", "types": ["country", "political"]}], "formatted_address": "2 Zhengyi Rd, Dongcheng Qu, Beijing Shi, China", "geometry": {"location": {"lat": 39.904211, "lng": 116.407395}, "location_type": "ROOFTOP", "viewport": {"northeast": {"lat": 39.90555998029149, "lng": 116.4087439802915}, "southwest": {"lat": 39.90286201970849, "lng": 116.4060460197085}}}, "place_id": "ChIJMyfj2LlS8DUR5MK2x1vfOPc", "plus_code": {"compound_code": "WC34+MX Dongcheng, Beijing, China", "global_code": "8PFRWC34+MX"}, "types": ["establishment", "point_of_interest"]}, {"address_components": [{"long_name": "Dongtou Alley", "short_name": "Dongtou Alley", "types": ["route"]}, {"long_name": "Dongcheng", "short_name": "Dongcheng", "types": ["political", "sublocality", "sublocality_level_1"]}, {"long_name": "Beijing", "short_name": "Beijing", "types": ["administrative_area_level_1", "political"]}, {"long_name": "China", "short_name": "CN", "types": ["country", "political"]}], "formatted_address": "China, Beijing, Dongcheng, Dongtou Alley, \u6cd5\u534e\u5357\u91cc10", "geometry": {"location": {"lat": 39.887211, "lng": 116.427372}, "location_type": "GEOMETRIC_CENTER", "viewport": {"northeast": {"lat": 39.8885599802915, "lng": 116.4287209802915}, "southwest": {"lat": 39.8858620197085, "lng": 116.4260230197085}}}, "place_id": "ChIJ92Zlw1at8TURzyf9aVvOOPg", "plus_code": {"compound_code": "VCPG+VW Dongcheng, Beijing, China", "global_code": "8PFRVCPG+VW"}, "types": ["establishment", "point_of_interest"]}], "types": "Government_Sectors"}, {"weighting": "3", "companies": "\u62db\u5546\u5c40", "Address": [{"address_components": [{"long_name": "Tsing Yi", "short_name": "Tsing Yi", "types": ["neighborhood", "political"]}, {"long_name": "New Territories", "short_name": "New Territories", "types": ["administrative_area_level_1", "political"]}, {"long_name": "Hong Kong", "short_name": "HK", "types": ["country", "political"]}], "formatted_address": "Tsing Yi, Hong Kong", "geometry": {"location": {"lat": 22.3329355, "lng": 114.1114279}, "location_type": "GEOMETRIC_CENTER", "viewport": {"northeast": {"lat": 22.3342844802915, "lng": 114.1127768802915}, "southwest": {"lat": 22.3315865197085, "lng": 114.1100789197085}}}, "place_id": "ChIJJSgAnDH_AzQRlte7Pp_gF-M", "plus_code": {"compound_code": "84M6+5H Hong Kong", "global_code": "7PJP84M6+5H"}, "types": ["establishment", "point_of_interest", "storage"]}], "types": "Government_Sectors"}, {"weighting": "6", "companies": "\u4e0a\u6d77\u5e02\u4eba\u6c11\u653f\u5e9c", "Address": [{"address_components": [{"long_name": "200", "short_name": "200", "types": ["street_number"]}, {"long_name": "Renmin Avenue", "short_name": "Renmin Ave", "types": ["route"]}, {"long_name": "RenMin GuangChang", "short_name": "RenMin GuangChang", "types": ["neighborhood", "political"]}, {"long_name": "Huangpu Qu", "short_name": "Huangpu Qu", "types": ["political", "sublocality", "sublocality_level_1"]}, {"long_name": "Shanghai Shi", "short_name": "Shanghai Shi", "types": ["administrative_area_level_1", "political"]}, {"long_name": "China", "short_name": "CN", "types": ["country", "political"]}, {"long_name": "200003", "short_name": "200003", "types": ["postal_code"]}], "formatted_address": "200 Renmin Ave, RenMin GuangChang, Huangpu Qu, Shanghai Shi, China, 200003", "geometry": {"location": {"lat": 31.230416, "lng": 121.473701}, "location_type": "ROOFTOP", "viewport": {"northeast": {"lat": 31.2317649802915, "lng": 121.4750499802915}, "southwest": {"lat": 31.2290670197085, "lng": 121.4723520197085}}}, "place_id": "ChIJ6_xMJGpwsjURlnW69aIXy40", "plus_code": {"compound_code": "6FJF+5F Huangpu, Shanghai, China", "global_code": "8Q336FJF+5F"}, "types": ["establishment", "point_of_interest"]}], "types": "Government_Sectors"}, {"weighting": "1", "companies": "\u7f8e\u56fd\u98df\u54c1\u548c\u836f\u7269\u7ba1\u7406\u5c40", "Address": [{"address_components": [{"long_name": "135", "short_name": "135", "types": ["subpremise"]}, {"long_name": "1603", "short_name": "1603", "types": ["street_number"]}, {"long_name": "South 101st East Avenue", "short_name": "S 101st E Ave", "types": ["route"]}, {"long_name": "Tulsa", "short_name": "Tulsa", "types": ["locality", "political"]}, {"long_name": "Tulsa County", "short_name": "Tulsa County", "types": ["administrative_area_level_2", "political"]}, {"long_name": "Oklahoma", "short_name": "OK", "types": ["administrative_area_level_1", "political"]}, {"long_name": "United States", "short_name": "US", "types": ["country", "political"]}, {"long_name": "74128", "short_name": "74128", "types": ["postal_code"]}, {"long_name": "4636", "short_name": "4636", "types": ["postal_code_suffix"]}], "formatted_address": "1603 S 101st E Ave #135, Tulsa, OK 74128, USA", "geometry": {"location": {"lat": 36.1393362, "lng": -95.8633692}, "location_type": "ROOFTOP", "viewport": {"northeast": {"lat": 36.14068518029149, "lng": -95.8620202197085}, "southwest": {"lat": 36.1379872197085, "lng": -95.8647181802915}}}, "place_id": "ChIJr_GtB93ytocR34Gscz9SO68", "plus_code": {"compound_code": "44QP+PM Tulsa, Oklahoma, United States", "global_code": "868644QP+PM"}, "types": ["establishment", "health", "local_government_office", "point_of_interest"]}], "types": "Government_Sectors"}, {"weighting": "4", "companies": "\u91cd\u5e86\u5e02\u653f\u5e9c", "Address": [{"address_components": [{"long_name": "Yuzhong", "short_name": "Yuzhong", "types": ["political", "sublocality", "sublocality_level_1"]}, {"long_name": "Chongqing", "short_name": "Chongqing", "types": ["locality", "political"]}, {"long_name": "China", "short_name": "CN", "types": ["country", "political"]}], "formatted_address": "China, Chongqing, Yuzhong, \u4e0a\u66fe\u5bb6\u5ca924\u53f7\u96fe\u90fd\u5bbe\u9986", "geometry": {"location": {"lat": 29.565196, "lng": 106.55163}, "location_type": "GEOMETRIC_CENTER", "viewport": {"northeast": {"lat": 29.5665449802915, "lng": 106.5529789802915}, "southwest": {"lat": 29.5638470197085, "lng": 106.5502810197085}}}, "place_id": "ChIJ75tR2KY0kzYRuw2142yJjsM", "plus_code": {"compound_code": "HH82+3M Yuzhong, Chongqing, China", "global_code": "7PX8HH82+3M"}, "types": ["establishment", "point_of_interest"]}, {"address_components": [{"long_name": "Yuzhong", "short_name": "Yuzhong", "types": ["political", "sublocality", "sublocality_level_1"]}, {"long_name": "Chongqing", "short_name": "Chongqing", "types": ["locality", "political"]}, {"long_name": "China", "short_name": "CN", "types": ["country", "political"]}], "formatted_address": "China, Chongqing, Yuzhong, \u4eba\u6c11\u8def", "geometry": {"location": {"lat": 29.563597, "lng": 106.552702}, "location_type": "GEOMETRIC_CENTER", "viewport": {"northeast": {"lat": 29.5649459802915, "lng": 106.5540509802915}, "southwest": {"lat": 29.5622480197085, "lng": 106.5513530197085}}}, "place_id": "ChIJRUQCS6E0kzYRQh78T_dONxM", "plus_code": {"compound_code": "HH73+C3 Yuzhong, Chongqing, China", "global_code": "7PX8HH73+C3"}, "types": ["establishment", "point_of_interest"]}], "types": "Government_Sectors"}, {"weighting": "24", "companies": "\u5de5\u5546\u603b\u5c40", "Address": [{"address_components": [{"long_name": "8", "short_name": "8", "types": ["street_number"]}, {"long_name": "Sanlihe East Road", "short_name": "Sanlihe E Rd", "types": ["route"]}, {"long_name": "Xicheng Qu", "short_name": "Xicheng Qu", "types": ["political", "sublocality", "sublocality_level_1"]}, {"long_name": "Beijing Shi", "short_name": "Beijing Shi", "types": ["administrative_area_level_1", "political"]}, {"long_name": "China", "short_name": "CN", "types": ["country", "political"]}], "formatted_address": "8 Sanlihe E Rd, Xicheng Qu, Beijing Shi, China", "geometry": {"location": {"lat": 39.915395, "lng": 116.345541}, "location_type": "ROOFTOP", "viewport": {"northeast": {"lat": 39.91674398029149, "lng": 116.3468899802915}, "southwest": {"lat": 39.91404601970849, "lng": 116.3441920197085}}}, "place_id": "ChIJ8ektVRJS8DURY9U-QUjFgXo", "plus_code": {"compound_code": "W88W+56 Xicheng, Beijing, China", "global_code": "8PFRW88W+56"}, "types": ["establishment", "point_of_interest"]}], "types": "Government_Sectors"}, {"weighting": "4", "companies": "\u56fd\u5bb6\u65c5\u6e38\u5c40", "Address": [{"address_components": [{"long_name": "# 8", "short_name": "# 8", "types": ["subpremise"]}, {"long_name": "355", "short_name": "355", "types": ["street_number"]}, {"long_name": "Lexington Avenue", "short_name": "Lexington Ave", "types": ["route"]}, {"long_name": "Manhattan", "short_name": "Manhattan", "types": ["political", "sublocality", "sublocality_level_1"]}, {"long_name": "New York", "short_name": "New York", "types": ["locality", "political"]}, {"long_name": "New York County", "short_name": "New York County", "types": ["administrative_area_level_2", "political"]}, {"long_name": "New York", "short_name": "NY", "types": ["administrative_area_level_1", "political"]}, {"long_name": "United States", "short_name": "US", "types": ["country", "political"]}, {"long_name": "10017", "short_name": "10017", "types": ["postal_code"]}, {"long_name": "6603", "short_name": "6603", "types": ["postal_code_suffix"]}], "formatted_address": "355 Lexington Ave # 8, New York, NY 10017, USA", "geometry": {"location": {"lat": 40.7501675, "lng": -73.97648269999999}, "location_type": "ROOFTOP", "viewport": {"northeast": {"lat": 40.7515164802915, "lng": -73.9751337197085}, "southwest": {"lat": 40.7488185197085, "lng": -73.9778316802915}}}, "place_id": "ChIJt5cK5gNZwokRRSGYYSqjL5o", "plus_code": {"compound_code": "Q22F+3C New York, United States", "global_code": "87G8Q22F+3C"}, "types": ["establishment", "point_of_interest", "travel_agency"]}, {"address_components": [{"long_name": "481", "short_name": "481", "types": ["street_number"]}, {"long_name": "University Avenue", "short_name": "University Ave", "types": ["route"]}, {"long_name": "Old Toronto", "short_name": "Old Toronto", "types": ["political", "sublocality", "sublocality_level_1"]}, {"long_name": "Toronto", "short_name": "Toronto", "types": ["locality", "political"]}, {"long_name": "Toronto Division", "short_name": "Toronto Division", "types": ["administrative_area_level_2", "political"]}, {"long_name": "Ontario", "short_name": "ON", "types": ["administrative_area_level_1", "political"]}, {"long_name": "Canada", "short_name": "CA", "types": ["country", "political"]}, {"long_name": "M5G 2E9", "short_name": "M5G 2E9", "types": ["postal_code"]}], "formatted_address": "481 University Ave, Toronto, ON M5G 2E9, Canada", "geometry": {"location": {"lat": 43.6554068, "lng": -79.38799589999999}, "location_type": "ROOFTOP", "viewport": {"northeast": {"lat": 43.6567557802915, "lng": -79.38664691970848}, "southwest": {"lat": 43.65405781970851, "lng": -79.38934488029149}}}, "place_id": "ChIJ12RgENI0K4gRFCVV72C0s5E", "plus_code": {"compound_code": "MJ46+5R Toronto, Ontario, Canada", "global_code": "87M2MJ46+5R"}, "types": ["establishment", "point_of_interest", "travel_agency"]}], "types": "Government_Sectors"}, {"weighting": "1", "companies": "\u7f8e\u56fd\u56fd\u5bb6\u822a\u7a7a\u822a\u5929\u5c40", "Address": [{"address_components": [{"long_name": "Moffett Boulevard", "short_name": "Moffett Blvd", "types": ["route"]}, {"long_name": "Mountain View", "short_name": "Mountain View", "types": ["locality", "political"]}, {"long_name": "Santa Clara County", "short_name": "Santa Clara County", "types": ["administrative_area_level_2", "political"]}, {"long_name": "California", "short_name": "CA", "types": ["administrative_area_level_1", "political"]}, {"long_name": "United States", "short_name": "US", "types": ["country", "political"]}, {"long_name": "94035", "short_name": "94035", "types": ["postal_code"]}], "formatted_address": "Moffett Blvd, Mountain View, CA 94035, USA", "geometry": {"location": {"lat": 37.4088478, "lng": -122.0644229}, "location_type": "GEOMETRIC_CENTER", "viewport": {"northeast": {"lat": 37.4101967802915, "lng": -122.0630739197085}, "southwest": {"lat": 37.4074988197085, "lng": -122.0657718802915}}}, "place_id": "ChIJZUGCqmW3j4ARtUW7P-BlvBU", "plus_code": {"compound_code": "CW5P+G6 Mountain View, California, United States", "global_code": "849VCW5P+G6"}, "types": ["establishment", "point_of_interest"]}], "types": "Government_Sectors"}, {"weighting": "15", "companies": "\u6b27\u76df\u59d4\u5458\u4f1a", "Address": [{"address_components": [{"long_name": "150", "short_name": "150", "types": ["street_number"]}, {"long_name": "Metcalfe Street", "short_name": "Metcalfe St", "types": ["route"]}, {"long_name": "Downtown", "short_name": "Downtown", "types": ["neighborhood", "political"]}, {"long_name": "Ottawa", "short_name": "Ottawa", "types": ["locality", "political"]}, {"long_name": "Ottawa Division", "short_name": "Ottawa Division", "types": ["administrative_area_level_2", "political"]}, {"long_name": "Ontario", "short_name": "ON", "types": ["administrative_area_level_1", "political"]}, {"long_name": "Canada", "short_name": "CA", "types": ["country", "political"]}, {"long_name": "K2P 1P1", "short_name": "K2P 1P1", "types": ["postal_code"]}], "formatted_address": "150 Metcalfe St, Ottawa, ON K2P 1P1, Canada", "geometry": {"location": {"lat": 45.4198818, "lng": -75.6951768}, "location_type": "ROOFTOP", "viewport": {"northeast": {"lat": 45.4212307802915, "lng": -75.6938278197085}, "southwest": {"lat": 45.4185328197085, "lng": -75.69652578029151}}}, "place_id": "ChIJcb3F5qoFzkwRt9wduzNPKLw", "plus_code": {"compound_code": "C893+XW Byward Market - Parliament Hill, Ottawa, ON, Canada", "global_code": "87Q6C893+XW"}, "types": ["establishment", "point_of_interest"]}], "types": "Government_Sectors"}, {"weighting": "6", "companies": "\u4e0a\u6d77\u5e02\u516c\u5b89\u5c40", "Address": [{"address_components": [{"long_name": "Huangpu", "short_name": "Huangpu", "types": ["political", "sublocality", "sublocality_level_1"]}, {"long_name": "Shanghai", "short_name": "Shanghai", "types": ["locality", "political"]}, {"long_name": "China", "short_name": "CN", "types": ["country", "political"]}], "formatted_address": "China, Shanghai, Huangpu, \u798f\u5dde\u8def185\u53f7", "geometry": {"location": {"lat": 31.234816, "lng": 121.486774}, "location_type": "GEOMETRIC_CENTER", "viewport": {"northeast": {"lat": 31.2361649802915, "lng": 121.4881229802915}, "southwest": {"lat": 31.2334670197085, "lng": 121.4854250197085}}}, "place_id": "ChIJ6ZsUQVlwsjURvoqztVTLGTk", "plus_code": {"compound_code": "6FMP+WP Huangpu, Shanghai, China", "global_code": "8Q336FMP+WP"}, "types": ["establishment", "point_of_interest"]}], "types": "Government_Sectors"}, {"weighting": "2", "companies": "\u9999\u6e2f\u653f\u5e9c", "Address": [{"address_components": [{"long_name": "4\u6a13", "short_name": "4\u6a13", "types": ["subpremise"]}, {"long_name": "\u9999\u6e2f\u6b77\u53f2\u6a94\u6848\u5927\u6a13", "short_name": "\u9999\u6e2f\u6b77\u53f2\u6a94\u6848\u5927\u6a13", "types": ["premise"]}, {"long_name": "13\u865f", "short_name": "13\u865f", "types": ["street_number"]}, {"long_name": "\u7fe0\u5c4f\u9053", "short_name": "\u7fe0\u5c4f\u9053", "types": ["route"]}, {"long_name": "\u89c0\u5858", "short_name": "\u89c0\u5858", "types": ["neighborhood", "political"]}, {"long_name": "\u4e5d\u9f8d", "short_name": "\u4e5d\u9f8d", "types": ["administrative_area_level_1", "political"]}, {"long_name": "Hong Kong", "short_name": "HK", "types": ["country", "political"]}], "formatted_address": "Hong Kong, \u89c0\u5858\u7fe0\u5c4f\u905313\u865f\u9999\u6e2f\u6b77\u53f2\u6a94\u6848\u5927\u6a134\u6a13", "geometry": {"location": {"lat": 22.312494, "lng": 114.229627}, "location_type": "ROOFTOP", "viewport": {"northeast": {"lat": 22.3138429802915, "lng": 114.2309759802915}, "southwest": {"lat": 22.31114501970849, "lng": 114.2282780197085}}}, "place_id": "ChIJQ5OXW1ABBDQR_g5WEgcpMhk", "plus_code": {"compound_code": "866H+XV Hong Kong", "global_code": "7PJP866H+XV"}, "types": ["establishment", "point_of_interest"]}], "types": "Government_Sectors"}, {"weighting": "8", "companies": "\u82f1\u56fd\u653f\u5e9c", "Address": [{"address_components": [{"long_name": "70", "short_name": "70", "types": ["street_number"]}, {"long_name": "Whitehall", "short_name": "Whitehall", "types": ["route"]}, {"long_name": "Westminster", "short_name": "Westminster", "types": ["neighborhood", "political"]}, {"long_name": "London", "short_name": "London", "types": ["postal_town"]}, {"long_name": "Greater London", "short_name": "Greater London", "types": ["administrative_area_level_2", "political"]}, {"long_name": "England", "short_name": "England", "types": ["administrative_area_level_1", "political"]}, {"long_name": "United Kingdom", "short_name": "GB", "types": ["country", "political"]}, {"long_name": "SW1A 2AS", "short_name": "SW1A 2AS", "types": ["postal_code"]}], "formatted_address": "70 Whitehall, Westminster, London SW1A 2AS, UK", "geometry": {"location": {"lat": 51.503607, "lng": -0.1265756}, "location_type": "ROOFTOP", "viewport": {"northeast": {"lat": 51.5049559802915, "lng": -0.125226619708498}, "southwest": {"lat": 51.5022580197085, "lng": -0.127924580291502}}}, "place_id": "ChIJY9HEcMUEdkgRZpOzjGFSYdY", "plus_code": {"compound_code": "GV3F+C9 Westminster, London, United Kingdom", "global_code": "9C3XGV3F+C9"}, "types": ["establishment", "point_of_interest"]}], "types": "Government_Sectors"}, {"weighting": "3", "companies": "\u4e2d\u56fd\u56fd\u9645\u8d38\u6613\u4fc3\u8fdb\u59d4\u5458\u4f1a", "Address": [{"address_components": [{"long_name": "1", "short_name": "1", "types": ["street_number"]}, {"long_name": "Fuxingmen Outer Street", "short_name": "Fuxingmen Outer St", "types": ["route"]}, {"long_name": "Xicheng Qu", "short_name": "Xicheng Qu", "types": ["political", "sublocality", "sublocality_level_1"]}, {"long_name": "Beijing Shi", "short_name": "Beijing Shi", "types": ["administrative_area_level_1", "political"]}, {"long_name": "China", "short_name": "CN", "types": ["country", "political"]}], "formatted_address": "1 Fuxingmen Outer St, Xicheng Qu, Beijing Shi, China", "geometry": {"location": {"lat": 39.907885, "lng": 116.353419}, "location_type": "ROOFTOP", "viewport": {"northeast": {"lat": 39.9092339802915, "lng": 116.3547679802915}, "southwest": {"lat": 39.9065360197085, "lng": 116.3520700197085}}}, "place_id": "ChIJ4bfPxXNS8DURgoH9GUWoW5U", "plus_code": {"compound_code": "W953+59 Xicheng, Beijing, China", "global_code": "8PFRW953+59"}, "types": ["establishment", "point_of_interest"]}], "types": "Government_Sectors"}, {"weighting": "1", "companies": "\u5929\u6d25\u5e02\u653f\u5e9c", "Address": [{"address_components": [{"long_name": "Hotel West Road", "short_name": "Hotel W Rd", "types": ["route"]}, {"long_name": "Hexi Qu", "short_name": "Hexi Qu", "types": ["political", "sublocality", "sublocality_level_1"]}, {"long_name": "Tianjin Shi", "short_name": "Tianjin Shi", "types": ["administrative_area_level_1", "political"]}, {"long_name": "China", "short_name": "CN", "types": ["country", "political"]}], "formatted_address": "Hotel W Rd, Hexi Qu, Tianjin Shi, China", "geometry": {"location": {"lat": 39.084158, "lng": 117.200983}, "location_type": "GEOMETRIC_CENTER", "viewport": {"northeast": {"lat": 39.0855069802915, "lng": 117.2023319802915}, "southwest": {"lat": 39.0828090197085, "lng": 117.1996340197085}}}, "place_id": "ChIJS5wkbDf97TURuKs_kmMXf9k", "plus_code": {"compound_code": "36M2+M9 Hexi, Tianjin, China", "global_code": "8PFV36M2+M9"}, "types": ["establishment", "point_of_interest"]}], "types": "Government_Sectors"}, {"weighting": "25", "companies": "\u516c\u5b89\u5c40", "Address": [{"address_components": [{"long_name": "Shinan", "short_name": "Shinan", "types": ["political", "sublocality", "sublocality_level_1"]}, {"long_name": "Qingdao", "short_name": "Qingdao", "types": ["locality", "political"]}, {"long_name": "Shandong", "short_name": "Shandong", "types": ["administrative_area_level_1", "political"]}, {"long_name": "China", "short_name": "CN", "types": ["country", "political"]}], "formatted_address": "China, Shandong, Qingdao, Shinan, \u91d1\u6e56\u8def17\u53f7", "geometry": {"location": {"lat": 36.08209799999999, "lng": 120.384061}, "location_type": "GEOMETRIC_CENTER", "viewport": {"northeast": {"lat": 36.08344698029149, "lng": 120.3854099802915}, "southwest": {"lat": 36.0807490197085, "lng": 120.3827120197085}}}, "place_id": "ChIJ3xwzUasRljUR5syrP57izQE", "plus_code": {"compound_code": "39JM+RJ Shinan, Qingdao, Shandong, China", "global_code": "8Q8239JM+RJ"}, "types": ["establishment", "point_of_interest", "police"]}], "types": "Government_Sectors"}, {"weighting": "10", "companies": "\u4e2d\u56fd\u653f\u5e9c", "Address": [{"address_components": [{"long_name": "Changcheng Road", "short_name": "Changcheng Rd", "types": ["route"]}, {"long_name": "Shandan Xian", "short_name": "Shandan Xian", "types": ["political", "sublocality", "sublocality_level_1"]}, {"long_name": "Zhangye Shi", "short_name": "Zhangye Shi", "types": ["locality", "political"]}, {"long_name": "Gansu Sheng", "short_name": "Gansu Sheng", "types": ["administrative_area_level_1", "political"]}, {"long_name": "China", "short_name": "CN", "types": ["country", "political"]}], "formatted_address": "Changcheng Rd, Shandan Xian, Zhangye Shi, Gansu Sheng, China", "geometry": {"location": {"lat": 38.784636, "lng": 101.0992057}, "location_type": "GEOMETRIC_CENTER", "viewport": {"northeast": {"lat": 38.7859849802915, "lng": 101.1005546802915}, "southwest": {"lat": 38.7832870197085, "lng": 101.0978567197085}}}, "place_id": "ChIJmTsmIYwdSzYR2qf-e2zWtJ4", "plus_code": {"compound_code": "Q3MX+VM Qingquanzhen, Shandan, Zhangye, Gansu, China", "global_code": "8PC3Q3MX+VM"}, "types": ["establishment", "point_of_interest"]}], "types": "Government_Sectors"}, {"weighting": "1", "companies": "\u6cb3\u5317\u7701\u653f\u5e9c", "Address": [{"address_components": [{"long_name": "46\u53f7", "short_name": "46\u53f7", "types": ["street_number"]}, {"long_name": "Weiming South Street", "short_name": "Weiming S St", "types": ["route"]}, {"long_name": "Qiaoxi Qu", "short_name": "Qiaoxi Qu", "types": ["political", "sublocality", "sublocality_level_1"]}, {"long_name": "Shijiazhuang Shi", "short_name": "Shijiazhuang Shi", "types": ["locality", "political"]}, {"long_name": "Hebei Sheng", "short_name": "Hebei Sheng", "types": ["administrative_area_level_1", "political"]}, {"long_name": "China", "short_name": "CN", "types": ["country", "political"]}, {"long_name": "050051", "short_name": "050051", "types": ["postal_code"]}], "formatted_address": "46 Weiming S St, Qiaoxi Qu, Shijiazhuang Shi, Hebei Sheng, China, 050051", "geometry": {"location": {"lat": 38.037057, "lng": 114.468665}, "location_type": "ROOFTOP", "viewport": {"northeast": {"lat": 38.0384059802915, "lng": 114.4700139802915}, "southwest": {"lat": 38.0357080197085, "lng": 114.4673160197085}}}, "place_id": "ChIJ79jEdPze5jURYITRGWIWaVA", "plus_code": {"compound_code": "2FP9+RF Qiaoxi, Shijiazhuang, Hebei, China", "global_code": "8PCP2FP9+RF"}, "types": ["establishment", "point_of_interest"]}], "types": "Government_Sectors"}, {"weighting": "6", "companies": "\u7f8e\u56fd\u5b87\u822a\u5c40", "Address": [{"address_components": [{"long_name": "4642", "short_name": "4642", "types": ["street_number"]}, {"long_name": "NASA Road 1", "short_name": "NASA Road 1", "types": ["route"]}, {"long_name": "Seabrook", "short_name": "Seabrook", "types": ["locality", "political"]}, {"long_name": "Harris County", "short_name": "Harris County", "types": ["administrative_area_level_2", "political"]}, {"long_name": "Texas", "short_name": "TX", "types": ["administrative_area_level_1", "political"]}, {"long_name": "United States", "short_name": "US", "types": ["country", "political"]}, {"long_name": "77586", "short_name": "77586", "types": ["postal_code"]}, {"long_name": "5414", "short_name": "5414", "types": ["postal_code_suffix"]}], "formatted_address": "4642 NASA Road 1, Seabrook, TX 77586, USA", "geometry": {"location": {"lat": 29.5671344, "lng": -95.0599386}, "location_type": "ROOFTOP", "viewport": {"northeast": {"lat": 29.5684833802915, "lng": -95.0585896197085}, "southwest": {"lat": 29.5657854197085, "lng": -95.0612875802915}}}, "place_id": "ChIJqRFEFYidQIYRfqT8tinMvW4", "plus_code": {"compound_code": "HW8R+V2 Pasadena, Texas, United States", "global_code": "76X6HW8R+V2"}, "types": ["establishment", "point_of_interest", "shopping_mall"]}], "types": "Government_Sectors"}, {"weighting": "1", "companies": "\u56fd\u5bb6\u77e5\u8bc6\u4ea7\u6743\u5c40", "Address": [{"address_components": [{"long_name": "600", "short_name": "600", "types": ["street_number"]}, {"long_name": "Dulany Street", "short_name": "Dulany St", "types": ["route"]}, {"long_name": "Eisenhower East", "short_name": "Eisenhower East", "types": ["neighborhood", "political"]}, {"long_name": "Alexandria", "short_name": "Alexandria", "types": ["locality", "political"]}, {"long_name": "Virginia", "short_name": "VA", "types": ["administrative_area_level_1", "political"]}, {"long_name": "United States", "short_name": "US", "types": ["country", "political"]}, {"long_name": "22314", "short_name": "22314", "types": ["postal_code"]}], "formatted_address": "600 Dulany St, Alexandria, VA 22314, USA", "geometry": {"location": {"lat": 38.80123529999999, "lng": -77.0640103}, "location_type": "ROOFTOP", "viewport": {"northeast": {"lat": 38.80258428029149, "lng": -77.06266131970851}, "southwest": {"lat": 38.7998863197085, "lng": -77.06535928029152}}}, "place_id": "ChIJBWAJ4Zuw44kR5gpPoNGY3cc", "plus_code": {"compound_code": "RW2P+F9 Alexandria, Mason, VA, United States", "global_code": "87C4RW2P+F9"}, "types": ["establishment", "point_of_interest"]}], "types": "Government_Sectors"}, {"weighting": "4", "companies": "\u4e0a\u6d77\u5e02\u653f\u5e9c", "Address": [{"address_components": [{"long_name": "200", "short_name": "200", "types": ["street_number"]}, {"long_name": "Renmin Avenue", "short_name": "Renmin Ave", "types": ["route"]}, {"long_name": "RenMin GuangChang", "short_name": "RenMin GuangChang", "types": ["neighborhood", "political"]}, {"long_name": "Huangpu Qu", "short_name": "Huangpu Qu", "types": ["political", "sublocality", "sublocality_level_1"]}, {"long_name": "Shanghai Shi", "short_name": "Shanghai Shi", "types": ["administrative_area_level_1", "political"]}, {"long_name": "China", "short_name": "CN", "types": ["country", "political"]}, {"long_name": "200003", "short_name": "200003", "types": ["postal_code"]}], "formatted_address": "200 Renmin Ave, RenMin GuangChang, Huangpu Qu, Shanghai Shi, China, 200003", "geometry": {"location": {"lat": 31.230416, "lng": 121.473701}, "location_type": "ROOFTOP", "viewport": {"northeast": {"lat": 31.2317649802915, "lng": 121.4750499802915}, "southwest": {"lat": 31.2290670197085, "lng": 121.4723520197085}}}, "place_id": "ChIJ6_xMJGpwsjURlnW69aIXy40", "plus_code": {"compound_code": "6FJF+5F Huangpu, Shanghai, China", "global_code": "8Q336FJF+5F"}, "types": ["establishment", "point_of_interest"]}], "types": "Government_Sectors"}, {"weighting": "1", "companies": "\u5e7f\u5dde\u5e02\u59d4", "Address": [{"address_components": [{"long_name": "Yuexiu", "short_name": "Yuexiu", "types": ["political", "sublocality", "sublocality_level_1"]}, {"long_name": "Guangzhou", "short_name": "Guangzhou", "types": ["locality", "political"]}, {"long_name": "Guangdong", "short_name": "Guangdong", "types": ["administrative_area_level_1", "political"]}, {"long_name": "China", "short_name": "CN", "types": ["country", "political"]}], "formatted_address": "China, Guangdong, Guangzhou, Yuexiu, \u6cd5\u653f\u8def30\u53f7", "geometry": {"location": {"lat": 23.132051, "lng": 113.274467}, "location_type": "GEOMETRIC_CENTER", "viewport": {"northeast": {"lat": 23.1333999802915, "lng": 113.2758159802915}, "southwest": {"lat": 23.1307020197085, "lng": 113.2731180197085}}}, "place_id": "ChIJJ-vKr9r4AjQR6SN_Nr2CaGA", "plus_code": {"compound_code": "47JF+RQ Yuexiu, Guangzhou, Guangdong, China", "global_code": "7PMM47JF+RQ"}, "types": ["establishment", "point_of_interest"]}], "types": "Government_Sectors"}, {"weighting": "5", "companies": "\u56fd\u8d44\u59d4", "Address": [{"address_components": [{"long_name": "26", "short_name": "26", "types": ["street_number"]}, {"long_name": "Xuanwumen West Street", "short_name": "Xuanwumen West Street", "types": ["route"]}, {"long_name": "Xicheng", "short_name": "Xicheng", "types": ["political", "sublocality", "sublocality_level_1"]}, {"long_name": "Beijing", "short_name": "Beijing", "types": ["administrative_area_level_1", "political"]}, {"long_name": "China", "short_name": "CN", "types": ["country", "political"]}], "formatted_address": "China, Beijing, Xicheng, Xuanwumen West Street, 26\u53f7\u96621", "geometry": {"location": {"lat": 39.897811, "lng": 116.356569}, "location_type": "ROOFTOP", "viewport": {"northeast": {"lat": 39.89915998029151, "lng": 116.3579179802915}, "southwest": {"lat": 39.89646201970851, "lng": 116.3552200197085}}}, "place_id": "ChIJVZcLD4lN8DURs5m70Wcw54Q", "plus_code": {"compound_code": "V9X4+4J Xicheng, Beijing, China", "global_code": "8PFRV9X4+4J"}, "types": ["establishment", "point_of_interest"]}, {"address_components": [{"long_name": "Xicheng", "short_name": "Xicheng", "types": ["political", "sublocality", "sublocality_level_1"]}, {"long_name": "Beijing", "short_name": "Beijing", "types": ["locality", "political"]}, {"long_name": "China", "short_name": "CN", "types": ["country", "political"]}], "formatted_address": "China, Beijing, Xicheng, \u7816\u5854\u80e1\u540c78\u53f7", "geometry": {"location": {"lat": 39.921655, "lng": 116.368217}, "location_type": "GEOMETRIC_CENTER", "viewport": {"northeast": {"lat": 39.9230039802915, "lng": 116.3695659802915}, "southwest": {"lat": 39.92030601970851, "lng": 116.3668680197085}}}, "place_id": "ChIJo6ftzF5S8DURLLigWjQTcq8", "plus_code": {"compound_code": "W9C9+M7 Xicheng, Beijing, China", "global_code": "8PFRW9C9+M7"}, "types": ["establishment", "local_government_office", "point_of_interest"]}], "types": "Government_Sectors"}, {"weighting": "1", "companies": "\u8377\u5170\u653f\u5e9c", "Address": [{"address_components": [{"long_name": "19", "short_name": "19", "types": ["street_number"]}, {"long_name": "Binnenhof", "short_name": "Binnenhof", "types": ["route"]}, {"long_name": "Centrum", "short_name": "Centrum", "types": ["political", "sublocality", "sublocality_level_1"]}, {"long_name": "Den Haag", "short_name": "Den Haag", "types": ["locality", "political"]}, {"long_name": "Den Haag", "short_name": "Den Haag", "types": ["administrative_area_level_2", "political"]}, {"long_name": "Zuid-Holland", "short_name": "ZH", "types": ["administrative_area_level_1", "political"]}, {"long_name": "Netherlands", "short_name": "NL", "types": ["country", "political"]}, {"long_name": "2513 AA", "short_name": "2513 AA", "types": ["postal_code"]}], "formatted_address": "Binnenhof 19, 2513 AA Den Haag, Netherlands", "geometry": {"location": {"lat": 52.0800266, "lng": 4.3137067}, "location_type": "ROOFTOP", "viewport": {"northeast": {"lat": 52.0813755802915, "lng": 4.315055680291502}, "southwest": {"lat": 52.0786776197085, "lng": 4.312357719708498}}}, "place_id": "ChIJ4WgMryS3xUcRskyRPXoUFZs", "plus_code": {"compound_code": "38J7+2F The Hague, Netherlands", "global_code": "9F4638J7+2F"}, "types": ["establishment", "point_of_interest"]}, {"address_components": [{"long_name": "10", "short_name": "10", "types": ["street_number"]}, {"long_name": "Willem Lodewijklaan", "short_name": "Willem Lodewijklaan", "types": ["route"]}, {"long_name": "Scheveningen", "short_name": "Scheveningen", "types": ["political", "sublocality", "sublocality_level_1"]}, {"long_name": "Den Haag", "short_name": "Den Haag", "types": ["locality", "political"]}, {"long_name": "Den Haag", "short_name": "Den Haag", "types": ["administrative_area_level_2", "political"]}, {"long_name": "Zuid-Holland", "short_name": "ZH", "types": ["administrative_area_level_1", "political"]}, {"long_name": "Netherlands", "short_name": "NL", "types": ["country", "political"]}, {"long_name": "2517 JT", "short_name": "2517 JT", "types": ["postal_code"]}], "formatted_address": "Willem Lodewijklaan 10, 2517 JT Den Haag, Netherlands", "geometry": {"location": {"lat": 52.0928659, "lng": 4.2856818}, "location_type": "ROOFTOP", "viewport": {"northeast": {"lat": 52.0942148802915, "lng": 4.287030780291502}, "southwest": {"lat": 52.0915169197085, "lng": 4.284332819708498}}}, "place_id": "ChIJvy_O3LewxUcRlN4FB8rHl2w", "plus_code": {"compound_code": "37VP+47 The Hague, Netherlands", "global_code": "9F4637VP+47"}, "types": ["embassy", "establishment", "point_of_interest"]}, {"address_components": [{"long_name": "Netherlands", "short_name": "NL", "types": ["country", "political"]}], "formatted_address": "Netherlands", "geometry": {"bounds": {"northeast": {"lat": 53.6316, "lng": 7.227510199999999}, "southwest": {"lat": 50.75038379999999, "lng": 3.3316001}}, "location": {"lat": 52.132633, "lng": 5.291265999999999}, "location_type": "APPROXIMATE", "viewport": {"northeast": {"lat": 53.6316, "lng": 7.227510199999999}, "southwest": {"lat": 50.75038379999999, "lng": 3.3316001}}}, "place_id": "ChIJu-SH28MJxkcRnwq9_851obM", "types": ["country", "political"]}], "types": "Government_Sectors"}, {"weighting": "3", "companies": "\u56fd\u5bb6\u90ae\u653f\u5c40", "Address": [{"address_components": [{"long_name": "Beilishi Road", "short_name": "Beilishi Rd", "types": ["route"]}, {"long_name": "Xicheng", "short_name": "Xicheng", "types": ["political", "sublocality", "sublocality_level_1"]}, {"long_name": "Beijing", "short_name": "Beijing", "types": ["administrative_area_level_1", "political"]}, {"long_name": "China", "short_name": "CN", "types": ["country", "political"]}], "formatted_address": "China, Beijing, Xicheng, Beilishi Rd, \u5317\u793c\u58eb\u8def\u75328", "geometry": {"location": {"lat": 39.938999, "lng": 116.353349}, "location_type": "GEOMETRIC_CENTER", "viewport": {"northeast": {"lat": 39.94034798029149, "lng": 116.3546979802915}, "southwest": {"lat": 39.9376500197085, "lng": 116.3520000197085}}}, "place_id": "ChIJj2h-RktS8DURqjiRVShsq0c", "plus_code": {"compound_code": "W9Q3+H8 Xicheng, Beijing, China", "global_code": "8PFRW9Q3+H8"}, "types": ["establishment", "point_of_interest"]}], "types": "Government_Sectors"}, {"weighting": "2", "companies": "\u4ea4\u7ba1\u5c40", "Address": [{"address_components": [{"long_name": "1", "short_name": "1", "types": ["street_number"]}, {"long_name": "Fuchengmen North Street", "short_name": "Fuchengmen N St", "types": ["route"]}, {"long_name": "Xicheng Qu", "short_name": "Xicheng Qu", "types": ["political", "sublocality", "sublocality_level_1"]}, {"long_name": "Beijing Shi", "short_name": "Beijing Shi", "types": ["administrative_area_level_1", "political"]}, {"long_name": "China", "short_name": "CN", "types": ["country", "political"]}], "formatted_address": "1 Fuchengmen N St, Xicheng Qu, Beijing Shi, China", "geometry": {"location": {"lat": 39.9311089, "lng": 116.3552182}, "location_type": "ROOFTOP", "viewport": {"northeast": {"lat": 39.9324578802915, "lng": 116.3565671802915}, "southwest": {"lat": 39.9297599197085, "lng": 116.3538692197085}}}, "place_id": "ChIJExioN09S8DURT9AD9nQppmA", "plus_code": {"compound_code": "W9J4+C3 Xicheng, Beijing, China", "global_code": "8PFRW9J4+C3"}, "types": ["establishment", "local_government_office", "point_of_interest"]}], "types": "Government_Sectors"}, {"weighting": "1", "companies": "\u6fb3\u95e8\u7279\u522b\u884c\u653f\u533a\u653f\u5e9c", "Address": [{"address_components": [{"long_name": "603", "short_name": "603", "types": ["street_number"]}, {"long_name": "Avenida do Doutor Rodrigo Rodrigues", "short_name": "Av. do Dr. Rodrigo Rodrigues", "types": ["route"]}, {"long_name": "Macau", "short_name": "MO", "types": ["country", "political"]}], "formatted_address": "603 Av. do Dr. Rodrigo Rodrigues, Macau", "geometry": {"location": {"lat": 22.1943023, "lng": 113.5496723}, "location_type": "ROOFTOP", "viewport": {"northeast": {"lat": 22.1956512802915, "lng": 113.5510212802915}, "southwest": {"lat": 22.1929533197085, "lng": 113.5483233197085}}}, "place_id": "ChIJXZQoycJ6ATQRb_7Mql-hduY", "plus_code": {"compound_code": "5GVX+PV Macau", "global_code": "7PJM5GVX+PV"}, "types": ["establishment", "point_of_interest"]}], "types": "Government_Sectors"}, {"weighting": "1", "companies": "\u7f8e\u56fd\u4e13\u5229\u5c40", "Address": [{"address_components": [{"long_name": "600", "short_name": "600", "types": ["street_number"]}, {"long_name": "Dulany Street", "short_name": "Dulany St", "types": ["route"]}, {"long_name": "Eisenhower East", "short_name": "Eisenhower East", "types": ["neighborhood", "political"]}, {"long_name": "Alexandria", "short_name": "Alexandria", "types": ["locality", "political"]}, {"long_name": "Virginia", "short_name": "VA", "types": ["administrative_area_level_1", "political"]}, {"long_name": "United States", "short_name": "US", "types": ["country", "political"]}, {"long_name": "22314", "short_name": "22314", "types": ["postal_code"]}], "formatted_address": "600 Dulany St, Alexandria, VA 22314, USA", "geometry": {"location": {"lat": 38.80123529999999, "lng": -77.0640103}, "location_type": "ROOFTOP", "viewport": {"northeast": {"lat": 38.80258428029149, "lng": -77.06266131970851}, "southwest": {"lat": 38.7998863197085, "lng": -77.06535928029152}}}, "place_id": "ChIJBWAJ4Zuw44kR5gpPoNGY3cc", "plus_code": {"compound_code": "RW2P+F9 Alexandria, Mason, VA, United States", "global_code": "87C4RW2P+F9"}, "types": ["establishment", "point_of_interest"]}], "types": "Government_Sectors"}, {"weighting": "4", "companies": "\u6df1\u5733\u5e02\u4eba\u6c11\u653f\u5e9c", "Address": [{"address_components": [{"long_name": "Fuzhong 3rd Road", "short_name": "Fuzhong 3rd Rd", "types": ["route"]}, {"long_name": "Futian", "short_name": "Futian", "types": ["political", "sublocality", "sublocality_level_1"]}, {"long_name": "Shenzhen", "short_name": "Shenzhen", "types": ["locality", "political"]}, {"long_name": "Guangdong", "short_name": "Guangdong", "types": ["administrative_area_level_1", "political"]}, {"long_name": "China", "short_name": "CN", "types": ["country", "political"]}], "formatted_address": "China, Guangdong, Shenzhen, Futian, Fuzhong 3rd Rd, \u798f\u4e2d\u4e09\u8def", "geometry": {"location": {"lat": 22.543099, "lng": 114.057868}, "location_type": "GEOMETRIC_CENTER", "viewport": {"northeast": {"lat": 22.5444479802915, "lng": 114.0592169802915}, "southwest": {"lat": 22.5417500197085, "lng": 114.0565190197085}}}, "place_id": "ChIJ8fBSYA70AzQRR0vmw1xxG3Y", "plus_code": {"compound_code": "G3V5+64 Futian, Shenzhen, Guangdong, China", "global_code": "7PJPG3V5+64"}, "types": ["establishment", "point_of_interest"]}], "types": "Government_Sectors"}, {"weighting": "1", "companies": "\u9996\u90fd\u56fd\u9645\u673a\u573a", "Address": [{"address_components": [{"long_name": "Beijing Capital International Airport", "short_name": "Beijing Capital International Airport", "types": ["airport", "establishment", "point_of_interest"]}, {"long_name": "Shunyi", "short_name": "Shunyi", "types": ["political", "sublocality", "sublocality_level_1"]}, {"long_name": "Beijing Shi", "short_name": "Beijing Shi", "types": ["administrative_area_level_1", "political"]}, {"long_name": "China", "short_name": "CN", "types": ["country", "political"]}], "formatted_address": "Beijing Capital International Airport (PEK), Shunyi, Beijing Shi, China", "geometry": {"location": {"lat": 40.0798573, "lng": 116.6031121}, "location_type": "GEOMETRIC_CENTER", "viewport": {"northeast": {"lat": 40.0812062802915, "lng": 116.6044610802915}, "southwest": {"lat": 40.0785083197085, "lng": 116.6017631197085}}}, "place_id": "ChIJGyBw9t0F8TURVL4jTjr1fEk", "plus_code": {"compound_code": "3JH3+W6 Chaoyang, Beijing, China", "global_code": "8PGR3JH3+W6"}, "types": ["airport", "establishment", "point_of_interest"]}], "types": "Government_Sectors"}, {"weighting": "2", "companies": "\u6c5f\u82cf\u7701\u653f\u5e9c", "Address": [{"address_components": [{"long_name": "68", "short_name": "68", "types": ["street_number"]}, {"long_name": "Beijing West Road", "short_name": "Beijing W Rd", "types": ["route"]}, {"long_name": "Gulou Qu", "short_name": "Gulou Qu", "types": ["political", "sublocality", "sublocality_level_1"]}, {"long_name": "Nanjing Shi", "short_name": "Nanjing Shi", "types": ["locality", "political"]}, {"long_name": "Jiangsu Sheng", "short_name": "Jiangsu Sheng", "types": ["administrative_area_level_1", "political"]}, {"long_name": "China", "short_name": "CN", "types": ["country", "political"]}, {"long_name": "210011", "short_name": "210011", "types": ["postal_code"]}], "formatted_address": "68 Beijing W Rd, Gulou Qu, Nanjing Shi, Jiangsu Sheng, China, 210011", "geometry": {"location": {"lat": 32.061383, "lng": 118.762012}, "location_type": "ROOFTOP", "viewport": {"northeast": {"lat": 32.0627319802915, "lng": 118.7633609802915}, "southwest": {"lat": 32.0600340197085, "lng": 118.7606630197085}}}, "place_id": "ChIJT8tNZ16LtTURdHhbiP9TQ64", "plus_code": {"compound_code": "3Q66+HR Gulou, Nanjing, Jiangsu, China", "global_code": "8P4W3Q66+HR"}, "types": ["establishment", "point_of_interest"]}], "types": "Government_Sectors"}, {"weighting": "1", "companies": "\u6d77\u4e8b\u5c40", "Address": [{"address_components": [{"long_name": "520", "short_name": "520", "types": ["street_number"]}, {"long_name": "Binjiang East Road", "short_name": "Binjiang E Rd", "types": ["route"]}, {"long_name": "BinJiang Lu", "short_name": "BinJiang Lu", "types": ["neighborhood", "political"]}, {"long_name": "Haizhu Qu", "short_name": "Haizhu Qu", "types": ["political", "sublocality", "sublocality_level_1"]}, {"long_name": "Guangzhou Shi", "short_name": "Guangzhou Shi", "types": ["locality", "political"]}, {"long_name": "Guangdong Sheng", "short_name": "Guangdong Sheng", "types": ["administrative_area_level_1", "political"]}, {"long_name": "China", "short_name": "CN", "types": ["country", "political"]}], "formatted_address": "520 Binjiang E Rd, BinJiang Lu, Haizhu Qu, Guangzhou Shi, Guangdong Sheng, China", "geometry": {"location": {"lat": 23.104606, "lng": 113.290235}, "location_type": "ROOFTOP", "viewport": {"northeast": {"lat": 23.1059549802915, "lng": 113.2915839802915}, "southwest": {"lat": 23.1032570197085, "lng": 113.2888860197085}}}, "place_id": "ChIJk1syWFL_AjQRgotOZgkkAe8", "plus_code": {"compound_code": "473R+R3 Haizhu, Guangzhou, Guangdong, China", "global_code": "7PMM473R+R3"}, "types": ["establishment", "point_of_interest"]}], "types": "Government_Sectors"}, {"weighting": "1", "companies": "\u79d1\u5b66\u6280\u672f\u59d4\u5458\u4f1a", "Address": [{"address_components": [{"long_name": "Dongcheng", "short_name": "Dongcheng", "types": ["political", "sublocality", "sublocality_level_1"]}, {"long_name": "Beijing", "short_name": "Beijing", "types": ["locality", "political"]}, {"long_name": "China", "short_name": "CN", "types": ["country", "political"]}], "formatted_address": "China, Beijing, Dongcheng, \u4e1c\u88f1\u8919\u80e1\u540c2\u53f7", "geometry": {"location": {"lat": 39.907612, "lng": 116.434799}, "location_type": "GEOMETRIC_CENTER", "viewport": {"northeast": {"lat": 39.9089609802915, "lng": 116.4361479802915}, "southwest": {"lat": 39.9062630197085, "lng": 116.4334500197085}}}, "place_id": "ChIJn2G2qDut8TURrImH5iMxAJw", "plus_code": {"compound_code": "WC5M+2W Dongcheng, Beijing, China", "global_code": "8PFRWC5M+2W"}, "types": ["establishment", "point_of_interest"]}], "types": "Government_Sectors"}, {"weighting": "1", "companies": "\u5317\u4eac\u5e02\u79d1\u59d4", "Address": [{"address_components": [{"long_name": "Xicheng", "short_name": "Xicheng", "types": ["political", "sublocality", "sublocality_level_1"]}, {"long_name": "Beijing", "short_name": "Beijing", "types": ["locality", "political"]}, {"long_name": "China", "short_name": "CN", "types": ["country", "political"]}], "formatted_address": "China, Beijing, Xicheng, \u897f\u76f4\u95e8\u5357\u5927\u885716\u53f7", "geometry": {"location": {"lat": 39.93559, "lng": 116.356215}, "location_type": "GEOMETRIC_CENTER", "viewport": {"northeast": {"lat": 39.93693898029151, "lng": 116.3575639802915}, "southwest": {"lat": 39.93424101970851, "lng": 116.3548660197085}}}, "place_id": "ChIJlajAQExS8DURoDa0ANgnC3c", "plus_code": {"compound_code": "W9P4+6F Xicheng, Beijing, China", "global_code": "8PFRW9P4+6F"}, "types": ["embassy", "establishment", "local_government_office", "point_of_interest", "police"]}], "types": "Government_Sectors"}, {"weighting": "1", "companies": "\u6e56\u5317\u7701\u4eba\u6c11\u653f\u5e9c", "Address": [{"address_components": [{"long_name": "21", "short_name": "21", "types": ["street_number"]}, {"long_name": "East 1st Road", "short_name": "E 1st Rd", "types": ["route"]}, {"long_name": "Wuchang Qu", "short_name": "Wuchang Qu", "types": ["political", "sublocality", "sublocality_level_1"]}, {"long_name": "Wuhan Shi", "short_name": "Wuhan Shi", "types": ["locality", "political"]}, {"long_name": "Hubei Sheng", "short_name": "Hubei Sheng", "types": ["administrative_area_level_1", "political"]}, {"long_name": "China", "short_name": "CN", "types": ["country", "political"]}, {"long_name": "430071", "short_name": "430071", "types": ["postal_code"]}], "formatted_address": "21 E 1st Rd, Wuchang Qu, Wuhan Shi, Hubei Sheng, China, 430071", "geometry": {"location": {"lat": 30.541025, "lng": 114.34284}, "location_type": "ROOFTOP", "viewport": {"northeast": {"lat": 30.5423739802915, "lng": 114.3441889802915}, "southwest": {"lat": 30.5396760197085, "lng": 114.3414910197085}}}, "place_id": "ChIJeVZcg2alLjQRXurjsmN7eOc", "plus_code": {"compound_code": "G8RV+C4 Wuchang, Wuhan, Hubei, China", "global_code": "8P2PG8RV+C4"}, "types": ["establishment", "point_of_interest"]}], "types": "Government_Sectors"}, {"weighting": "1", "companies": "\u5c71\u897f\u7701\u4eba\u6c11\u653f\u5e9c", "Address": [{"address_components": [{"long_name": "Yingze", "short_name": "Yingze", "types": ["political", "sublocality", "sublocality_level_1"]}, {"long_name": "Liuxiang Shangquan", "short_name": "Liuxiang Shangquan", "types": ["neighborhood", "political"]}, {"long_name": "Taiyuan", "short_name": "Taiyuan", "types": ["locality", "political"]}, {"long_name": "Shanxi", "short_name": "Shanxi", "types": ["administrative_area_level_1", "political"]}, {"long_name": "China", "short_name": "CN", "types": ["country", "political"]}, {"long_name": "030001", "short_name": "030001", "types": ["postal_code"]}], "formatted_address": "Liuxiang Shangquan, Yingze, Taiyuan, Shanxi, China, 030001", "geometry": {"location": {"lat": 37.860613, "lng": 112.568081}, "location_type": "GEOMETRIC_CENTER", "viewport": {"northeast": {"lat": 37.8619619802915, "lng": 112.5694299802915}, "southwest": {"lat": 37.8592640197085, "lng": 112.5667320197085}}}, "place_id": "ChIJteGpUAipCjYRI-_eTYLYgJ8", "plus_code": {"compound_code": "VH69+66 Yingze, Taiyuan, Shanxi, China", "global_code": "8P9JVH69+66"}, "types": ["establishment", "point_of_interest"]}], "types": "Government_Sectors"}, {"weighting": "58", "companies": "\u5e7f\u7535\u603b\u5c40", "Address": [{"address_components": [{"long_name": "Xicheng", "short_name": "Xicheng", "types": ["political", "sublocality", "sublocality_level_1"]}, {"long_name": "Beijing", "short_name": "Beijing", "types": ["locality", "political"]}, {"long_name": "China", "short_name": "CN", "types": ["country", "political"]}], "formatted_address": "China, Beijing, Xicheng, \u5fb7\u5185\u5927\u8857265\u53f7", "geometry": {"location": {"lat": 39.935849, "lng": 116.379397}, "location_type": "GEOMETRIC_CENTER", "viewport": {"northeast": {"lat": 39.93719798029149, "lng": 116.3807459802915}, "southwest": {"lat": 39.93450001970849, "lng": 116.3780480197085}}}, "place_id": "ChIJO6XbygNT8DURtvTtQD-jxNs", "plus_code": {"compound_code": "W9PH+8Q Xicheng, Beijing, China", "global_code": "8PFRW9PH+8Q"}, "types": ["establishment", "point_of_interest"]}], "types": "Government_Sectors"}, {"weighting": "33", "companies": "\u56fd\u5bb6\u7248\u6743\u5c40", "Address": [{"address_components": [{"long_name": "40", "short_name": "40", "types": ["street_number"]}, {"long_name": "Xuanwumen Outer Street", "short_name": "Xuanwumen Outer St", "types": ["route"]}, {"long_name": "Xicheng Qu", "short_name": "Xicheng Qu", "types": ["political", "sublocality", "sublocality_level_1"]}, {"long_name": "Beijing Shi", "short_name": "Beijing Shi", "types": ["administrative_area_level_1", "political"]}, {"long_name": "China", "short_name": "CN", "types": ["country", "political"]}], "formatted_address": "40 Xuanwumen Outer St, Xicheng Qu, Beijing Shi, China", "geometry": {"location": {"lat": 39.891367, "lng": 116.37557}, "location_type": "ROOFTOP", "viewport": {"northeast": {"lat": 39.8927159802915, "lng": 116.3769189802915}, "southwest": {"lat": 39.8900180197085, "lng": 116.3742210197085}}}, "place_id": "ChIJHTGe035N8DUR8yHv4iTX4GQ", "plus_code": {"compound_code": "V9RG+G6 Xicheng, Beijing, China", "global_code": "8PFRV9RG+G6"}, "types": ["establishment", "point_of_interest"]}], "types": "Government_Sectors"}, {"weighting": "4", "companies": "\u4e2d\u56fd\u8bc1\u5238\u76d1\u7763\u7ba1\u7406\u59d4\u5458\u4f1a", "Address": [{"address_components": [{"long_name": "Jinrong Street", "short_name": "Jinrong St", "types": ["route"]}, {"long_name": "JinRong Jie", "short_name": "JinRong Jie", "types": ["neighborhood", "political"]}, {"long_name": "Xicheng Qu", "short_name": "Xicheng Qu", "types": ["political", "sublocality", "sublocality_level_1"]}, {"long_name": "Beijing Shi", "short_name": "Beijing Shi", "types": ["administrative_area_level_1", "political"]}, {"long_name": "China", "short_name": "CN", "types": ["country", "political"]}], "formatted_address": "Jinrong St, JinRong Jie, Xicheng Qu, Beijing Shi, China", "geometry": {"location": {"lat": 39.914755, "lng": 116.359589}, "location_type": "GEOMETRIC_CENTER", "viewport": {"northeast": {"lat": 39.9161039802915, "lng": 116.3609379802915}, "southwest": {"lat": 39.9134060197085, "lng": 116.3582400197085}}}, "place_id": "ChIJ58Y7sGhS8DURWBp-n59OWNI", "plus_code": {"compound_code": "W975+WR Xicheng, Beijing, China", "global_code": "8PFRW975+WR"}, "types": ["establishment", "point_of_interest"]}], "types": "Government_Sectors"}, {"weighting": "2", "companies": "\u6df1\u5733\u5e02\u516c\u5b89\u5c40", "Address": [{"address_components": [{"long_name": "Longgang", "short_name": "Longgang", "types": ["political", "sublocality", "sublocality_level_1"]}, {"long_name": "Shenzhen", "short_name": "Shenzhen", "types": ["locality", "political"]}, {"long_name": "Guangdong", "short_name": "Guangdong", "types": ["administrative_area_level_1", "political"]}, {"long_name": "China", "short_name": "CN", "types": ["country", "political"]}, {"long_name": "518118", "short_name": "518118", "types": ["postal_code"]}], "formatted_address": "Longgang, Shenzhen, Guangdong, China, 518118", "geometry": {"location": {"lat": 22.699835, "lng": 114.352107}, "location_type": "GEOMETRIC_CENTER", "viewport": {"northeast": {"lat": 22.7011839802915, "lng": 114.3534559802915}, "southwest": {"lat": 22.6984860197085, "lng": 114.3507580197085}}}, "place_id": "ChIJUb26dTRuBDQRMYqaBmdiSJ0", "plus_code": {"compound_code": "M9X2+WR Longgang, Shenzhen, Guangdong, China", "global_code": "7PJPM9X2+WR"}, "types": ["establishment", "point_of_interest", "police"]}], "types": "Government_Sectors"}, {"weighting": "1", "companies": "\u8d28\u91cf\u6280\u672f\u76d1\u7763\u5c40", "Address": [{"address_components": [{"long_name": "3", "short_name": "3", "types": ["street_number"]}, {"long_name": "Yuhui South Road", "short_name": "Yuhui S Rd", "types": ["route"]}, {"long_name": "Chaoyang Qu", "short_name": "Chaoyang Qu", "types": ["political", "sublocality", "sublocality_level_1"]}, {"long_name": "Beijing Shi", "short_name": "Beijing Shi", "types": ["administrative_area_level_1", "political"]}, {"long_name": "China", "short_name": "CN", "types": ["country", "political"]}, {"long_name": "100029", "short_name": "100029", "types": ["postal_code"]}], "formatted_address": "3 Yuhui S Rd, Chaoyang Qu, Beijing Shi, China, 100029", "geometry": {"location": {"lat": 39.9864024, "lng": 116.4307199}, "location_type": "ROOFTOP", "viewport": {"northeast": {"lat": 39.98775138029149, "lng": 116.4320688802915}, "southwest": {"lat": 39.98505341970849, "lng": 116.4293709197085}}}, "place_id": "ChIJWYsWcTCr8TURV6aL03x0S2U", "plus_code": {"compound_code": "XCPJ+H7 Chaoyang, Beijing, China", "global_code": "8PFRXCPJ+H7"}, "types": ["establishment", "point_of_interest"]}], "types": "Government_Sectors"}, {"weighting": "2", "companies": "\u4e2d\u5171\u5317\u4eac\u5e02\u59d4", "Address": [{"address_components": [{"long_name": "6", "short_name": "6", "types": ["street_number"]}, {"long_name": "Chegongzhuang Street", "short_name": "Chegongzhuang St", "types": ["route"]}, {"long_name": "Xicheng Qu", "short_name": "Xicheng Qu", "types": ["political", "sublocality", "sublocality_level_1"]}, {"long_name": "Beijing Shi", "short_name": "Beijing Shi", "types": ["administrative_area_level_1", "political"]}, {"long_name": "China", "short_name": "CN", "types": ["country", "political"]}, {"long_name": "100037", "short_name": "100037", "types": ["postal_code"]}], "formatted_address": "6 Chegongzhuang St, Xicheng Qu, Beijing Shi, China, 100037", "geometry": {"location": {"lat": 39.931676, "lng": 116.347137}, "location_type": "ROOFTOP", "viewport": {"northeast": {"lat": 39.93302498029149, "lng": 116.3484859802915}, "southwest": {"lat": 39.9303270197085, "lng": 116.3457880197085}}}, "place_id": "ChIJfWXjHzhS8DURcCQDLDe2pAU", "plus_code": {"compound_code": "W8JW+MV Xicheng, Beijing, China", "global_code": "8PFRW8JW+MV"}, "types": ["establishment", "point_of_interest", "university"]}], "types": "Government_Sectors"}, {"weighting": "4", "companies": "\u56fd\u5bb6\u4f53\u80b2\u603b\u5c40", "Address": [{"address_components": [{"long_name": "2", "short_name": "2", "types": ["street_number"]}, {"long_name": "Tiyuguan Road", "short_name": "Tiyuguan Rd", "types": ["route"]}, {"long_name": "Dongcheng Qu", "short_name": "Dongcheng Qu", "types": ["political", "sublocality", "sublocality_level_1"]}, {"long_name": "Beijing Shi", "short_name": "Beijing Shi", "types": ["administrative_area_level_1", "political"]}, {"long_name": "China", "short_name": "CN", "types": ["country", "political"]}], "formatted_address": "2 Tiyuguan Rd, Dongcheng Qu, Beijing Shi, China", "geometry": {"location": {"lat": 39.883665, "lng": 116.430509}, "location_type": "ROOFTOP", "viewport": {"northeast": {"lat": 39.8850139802915, "lng": 116.4318579802915}, "southwest": {"lat": 39.8823160197085, "lng": 116.4291600197085}}}, "place_id": "ChIJteFu8let8TURkY5k9Pwd8QQ", "plus_code": {"compound_code": "VCMJ+F6 Dongcheng, Beijing, China", "global_code": "8PFRVCMJ+F6"}, "types": ["establishment", "point_of_interest"]}], "types": "Government_Sectors"}, {"weighting": "5", "companies": "\u6fb3\u5927\u5229\u4e9a\u653f\u5e9c", "Address": [{"address_components": [{"long_name": "Parliament Drive", "short_name": "Parliament Dr", "types": ["route"]}, {"long_name": "Canberra", "short_name": "Canberra", "types": ["locality", "political"]}, {"long_name": "Australian Capital Territory", "short_name": "ACT", "types": ["administrative_area_level_1", "political"]}, {"long_name": "Australia", "short_name": "AU", "types": ["country", "political"]}, {"long_name": "2600", "short_name": "2600", "types": ["postal_code"]}], "formatted_address": "Parliament Dr, Canberra ACT 2600, Australia", "geometry": {"location": {"lat": -35.3082237, "lng": 149.1243923}, "location_type": "GEOMETRIC_CENTER", "viewport": {"northeast": {"lat": -35.3068747197085, "lng": 149.1257412802915}, "southwest": {"lat": -35.3095726802915, "lng": 149.1230433197085}}}, "place_id": "ChIJmTzEjt9MFmsRSaLaJvVDeVY", "plus_code": {"compound_code": "M4RF+PQ Canberra, Australian Capital Territory, Australia", "global_code": "4RPFM4RF+PQ"}, "types": ["establishment", "point_of_interest"]}], "types": "Government_Sectors"}, {"weighting": "18", "companies": "\u5317\u4eac\u5e02\u516c\u5b89\u5c40", "Address": [{"address_components": [{"long_name": "West Ring Road", "short_name": "W Ring Rd", "types": ["route"]}, {"long_name": "Changping", "short_name": "Changping", "types": ["political", "sublocality", "sublocality_level_1"]}, {"long_name": "Beijing", "short_name": "Beijing", "types": ["administrative_area_level_1", "political"]}, {"long_name": "China", "short_name": "CN", "types": ["country", "political"]}], "formatted_address": "China, Beijing, Changping, W Ring Rd, \u897f\u73af\u8def\u753268\u53f7", "geometry": {"location": {"lat": 40.2211446, "lng": 116.2270552}, "location_type": "GEOMETRIC_CENTER", "viewport": {"northeast": {"lat": 40.2224935802915, "lng": 116.2284041802915}, "southwest": {"lat": 40.2197956197085, "lng": 116.2257062197085}}}, "place_id": "ChIJKRX9Awvw8DURkyfySKi60Sg", "plus_code": {"compound_code": "66CG+FR Changping, Beijing, China", "global_code": "8PGR66CG+FR"}, "types": ["establishment", "point_of_interest", "police"]}], "types": "Government_Sectors"}, {"weighting": "1", "companies": "\u5409\u6797\u7701\u4eba\u6c11\u653f\u5e9c", "Address": [{"address_components": [{"long_name": "329", "short_name": "329", "types": ["street_number"]}, {"long_name": "Xinfa Road", "short_name": "Xinfa Rd", "types": ["route"]}, {"long_name": "Kuancheng Qu", "short_name": "Kuancheng Qu", "types": ["political", "sublocality", "sublocality_level_1"]}, {"long_name": "Changchun Shi", "short_name": "Changchun Shi", "types": ["locality", "political"]}, {"long_name": "Jilin Sheng", "short_name": "Jilin Sheng", "types": ["administrative_area_level_1", "political"]}, {"long_name": "China", "short_name": "CN", "types": ["country", "political"]}, {"long_name": "130051", "short_name": "130051", "types": ["postal_code"]}], "formatted_address": "329 Xinfa Rd, Kuancheng Qu, Changchun Shi, Jilin Sheng, China, 130051", "geometry": {"location": {"lat": 43.8959175, "lng": 125.3260676}, "location_type": "ROOFTOP", "viewport": {"northeast": {"lat": 43.89726648029149, "lng": 125.3274165802915}, "southwest": {"lat": 43.89456851970849, "lng": 125.3247186197085}}}, "place_id": "ChIJsUb4Y0RnOF4RJg_Wl-DpmRs", "plus_code": {"compound_code": "V8WG+9C Kuancheng, Changchun, Jilin, China", "global_code": "8QM7V8WG+9C"}, "types": ["establishment", "point_of_interest"]}, {"address_components": [{"long_name": "9999", "short_name": "9999", "types": ["street_number"]}, {"long_name": "Renmin Street", "short_name": "Renmin St", "types": ["route"]}, {"long_name": "Nanguan Qu", "short_name": "Nanguan Qu", "types": ["political", "sublocality", "sublocality_level_1"]}, {"long_name": "Changchun Shi", "short_name": "Changchun Shi", "types": ["locality", "political"]}, {"long_name": "Jilin Sheng", "short_name": "Jilin Sheng", "types": ["administrative_area_level_1", "political"]}, {"long_name": "China", "short_name": "CN", "types": ["country", "political"]}, {"long_name": "130022", "short_name": "130022", "types": ["postal_code"]}], "formatted_address": "9999 Renmin St, Nanguan Qu, Changchun Shi, Jilin Sheng, China, 130022", "geometry": {"location": {"lat": 43.821062, "lng": 125.325268}, "location_type": "ROOFTOP", "viewport": {"northeast": {"lat": 43.82241098029149, "lng": 125.3266169802915}, "southwest": {"lat": 43.8197130197085, "lng": 125.3239190197085}}}, "place_id": "ChIJEy5E37dcOF4REd--mz8kixs", "plus_code": {"compound_code": "R8CG+C4 Nanguan, Changchun, Jilin, China", "global_code": "8QM7R8CG+C4"}, "types": ["establishment", "point_of_interest"]}], "types": "Government_Sectors"}, {"weighting": "2", "companies": "\u56db\u5ddd\u7701\u59d4", "Address": [{"address_components": [{"long_name": "Qingyang", "short_name": "Qingyang", "types": ["political", "sublocality", "sublocality_level_1"]}, {"long_name": "Chengdu", "short_name": "Chengdu", "types": ["locality", "political"]}, {"long_name": "Sichuan", "short_name": "Sichuan", "types": ["administrative_area_level_1", "political"]}, {"long_name": "China", "short_name": "CN", "types": ["country", "political"]}], "formatted_address": "China, Sichuan, Chengdu, Qingyang, \u5546\u4e1a\u885716\u53f7", "geometry": {"location": {"lat": 30.66478799999999, "lng": 104.057842}, "location_type": "GEOMETRIC_CENTER", "viewport": {"northeast": {"lat": 30.66613698029149, "lng": 104.0591909802915}, "southwest": {"lat": 30.6634390197085, "lng": 104.0564930197085}}}, "place_id": "ChIJN08omSjF7zYRr29L82PEyic", "plus_code": {"compound_code": "M375+W4 Qingyang, Chengdu, Sichuan, China", "global_code": "8P26M375+W4"}, "types": ["embassy", "establishment", "local_government_office", "point_of_interest", "police"]}], "types": "Government_Sectors"}, {"weighting": "5", "companies": "\u5317\u4eac\u5e02\u59d4", "Address": [{"address_components": [{"long_name": "2", "short_name": "2", "types": ["street_number"]}, {"long_name": "Zhengyi Road", "short_name": "Zhengyi Rd", "types": ["route"]}, {"long_name": "Dongcheng Qu", "short_name": "Dongcheng Qu", "types": ["political", "sublocality", "sublocality_level_1"]}, {"long_name": "Beijing Shi", "short_name": "Beijing Shi", "types": ["administrative_area_level_1", "political"]}, {"long_name": "China", "short_name": "CN", "types": ["country", "political"]}], "formatted_address": "2 Zhengyi Rd, Dongcheng Qu, Beijing Shi, China", "geometry": {"location": {"lat": 39.904211, "lng": 116.407395}, "location_type": "ROOFTOP", "viewport": {"northeast": {"lat": 39.90555998029149, "lng": 116.4087439802915}, "southwest": {"lat": 39.90286201970849, "lng": 116.4060460197085}}}, "place_id": "ChIJMyfj2LlS8DUR5MK2x1vfOPc", "plus_code": {"compound_code": "WC34+MX Dongcheng, Beijing, China", "global_code": "8PFRWC34+MX"}, "types": ["establishment", "point_of_interest"]}], "types": "Government_Sectors"}, {"weighting": "6", "companies": "\u836f\u54c1\u76d1\u7763\u7ba1\u7406\u5c40", "Address": [{"address_components": [{"long_name": "288", "short_name": "288", "types": ["street_number"]}, {"long_name": "Henan South Road", "short_name": "Henan S Rd", "types": ["route"]}, {"long_name": "Huangpu Qu", "short_name": "Huangpu Qu", "types": ["political", "sublocality", "sublocality_level_1"]}, {"long_name": "Shanghai Shi", "short_name": "Shanghai Shi", "types": ["administrative_area_level_1", "political"]}, {"long_name": "China", "short_name": "CN", "types": ["country", "political"]}, {"long_name": "200085", "short_name": "200085", "types": ["postal_code"]}], "formatted_address": "288 Henan S Rd, Huangpu Qu, Shanghai Shi, China, 200085", "geometry": {"location": {"lat": 31.225304, "lng": 121.487715}, "location_type": "ROOFTOP", "viewport": {"northeast": {"lat": 31.2266529802915, "lng": 121.4890639802915}, "southwest": {"lat": 31.2239550197085, "lng": 121.4863660197085}}}, "place_id": "ChIJ3zDmGmFwsjURazM5JeaMSOs", "plus_code": {"compound_code": "6FGQ+43 Huangpu, Shanghai, China", "global_code": "8Q336FGQ+43"}, "types": ["establishment", "point_of_interest"]}], "types": "Government_Sectors"}, {"weighting": "1", "companies": "\u4e2d\u592e\u519b\u59d4", "Address": [{"address_components": [{"long_name": "\u4e2d\u592e\u519b\u59d4\u4e09\u5c40\u65e7\u5740", "short_name": "\u4e2d\u592e\u519b\u59d4\u4e09\u5c40\u65e7\u5740", "types": ["bus_station", "establishment", "point_of_interest", "transit_station"]}, {"long_name": "Baota Qu", "short_name": "Baota Qu", "types": ["political", "sublocality", "sublocality_level_1"]}, {"long_name": "Yanan Shi", "short_name": "Yanan Shi", "types": ["locality", "political"]}, {"long_name": "China", "short_name": "CN", "types": ["country", "political"]}, {"long_name": "716000", "short_name": "716000", "types": ["postal_code"]}], "formatted_address": "China, Yanan Shi, Baota Qu, \u4e2d\u592e\u519b\u59d4\u4e09\u5c40\u65e7\u5740 \u90ae\u653f\u7f16\u7801: 716000", "geometry": {"location": {"lat": 36.628147, "lng": 109.384109}, "location_type": "GEOMETRIC_CENTER", "viewport": {"northeast": {"lat": 36.6294959802915, "lng": 109.3854579802915}, "southwest": {"lat": 36.6267980197085, "lng": 109.3827600197085}}}, "place_id": "ChIJxR4YHlIjbjYRpN5XYsTtYhw", "plus_code": {"compound_code": "J9HM+7J Zaoyuanzhen, Baota, Yan'an, Shaanxi, China", "global_code": "8P8FJ9HM+7J"}, "types": ["bus_station", "establishment", "point_of_interest", "transit_station"]}], "types": "Government_Sectors"}, {"weighting": "15", "companies": "\u5e7f\u5dde\u5e02\u516c\u5b89\u5c40", "Address": [{"address_components": [{"long_name": "Yuexiu", "short_name": "Yuexiu", "types": ["political", "sublocality", "sublocality_level_1"]}, {"long_name": "Guangzhou", "short_name": "Guangzhou", "types": ["locality", "political"]}, {"long_name": "Guangdong", "short_name": "Guangdong", "types": ["administrative_area_level_1", "political"]}, {"long_name": "China", "short_name": "CN", "types": ["country", "political"]}], "formatted_address": "China, Guangdong, Guangzhou, Yuexiu, \u5e7f\u5dde\u8d77\u4e49\u8def200\u53f7", "geometry": {"location": {"lat": 23.1237805, "lng": 113.264953}, "location_type": "GEOMETRIC_CENTER", "viewport": {"northeast": {"lat": 23.1251294802915, "lng": 113.2663019802915}, "southwest": {"lat": 23.1224315197085, "lng": 113.2636040197085}}}, "place_id": "ChIJtd_BR8D4AjQR9-RjsFC5oe4", "plus_code": {"compound_code": "47F7+GX Yuexiu, Guangzhou, Guangdong, China", "global_code": "7PMM47F7+GX"}, "types": ["establishment", "point_of_interest", "police"]}], "types": "Government_Sectors"}, {"weighting": "1", "companies": "\u91cd\u5e86\u5e02\u59d4", "Address": [{"address_components": [{"long_name": "Yuzhong", "short_name": "Yuzhong", "types": ["political", "sublocality", "sublocality_level_1"]}, {"long_name": "Chongqing", "short_name": "Chongqing", "types": ["locality", "political"]}, {"long_name": "China", "short_name": "CN", "types": ["country", "political"]}], "formatted_address": "China, Chongqing, Yuzhong, \u4e0a\u66fe\u5bb6\u5ca924\u53f7\u96fe\u90fd\u5bbe\u9986", "geometry": {"location": {"lat": 29.565196, "lng": 106.55163}, "location_type": "GEOMETRIC_CENTER", "viewport": {"northeast": {"lat": 29.5665449802915, "lng": 106.5529789802915}, "southwest": {"lat": 29.5638470197085, "lng": 106.5502810197085}}}, "place_id": "ChIJ75tR2KY0kzYRuw2142yJjsM", "plus_code": {"compound_code": "HH82+3M Yuzhong, Chongqing, China", "global_code": "7PX8HH82+3M"}, "types": ["establishment", "point_of_interest"]}], "types": "Government_Sectors"}, {"weighting": "1", "companies": "\u56fd\u9645\u822a\u7a7a\u516c\u53f8", "Address": [{"address_components": [{"long_name": "37655", "short_name": "37655", "types": ["street_number"]}, {"long_name": "Ford Road", "short_name": "Ford Rd", "types": ["route"]}, {"long_name": "Westland", "short_name": "Westland", "types": ["locality", "political"]}, {"long_name": "Wayne County", "short_name": "Wayne County", "types": ["administrative_area_level_2", "political"]}, {"long_name": "Michigan", "short_name": "MI", "types": ["administrative_area_level_1", "political"]}, {"long_name": "United States", "short_name": "US", "types": ["country", "political"]}, {"long_name": "48185", "short_name": "48185", "types": ["postal_code"]}, {"long_name": "7672", "short_name": "7672", "types": ["postal_code_suffix"]}], "formatted_address": "37655 Ford Rd, Westland, MI 48185, USA", "geometry": {"location": {"lat": 42.3236237, "lng": -83.4116906}, "location_type": "ROOFTOP", "viewport": {"northeast": {"lat": 42.32497268029149, "lng": -83.4103416197085}, "southwest": {"lat": 42.3222747197085, "lng": -83.41303958029151}}}, "place_id": "ChIJb4GYEHhNO4gRWSqVXDZVrc8", "plus_code": {"compound_code": "8HFQ+C8 Westland, Michigan, United States", "global_code": "86JR8HFQ+C8"}, "types": ["establishment", "point_of_interest"]}], "types": "Government_Sectors"}, {"weighting": "1", "companies": "\u56fd\u5bb6\u6587\u7269\u5c40", "Address": [{"address_components": [{"long_name": "10", "short_name": "10", "types": ["street_number"]}, {"long_name": "Chaoyangmen North Street", "short_name": "Chaoyangmen N St", "types": ["route"]}, {"long_name": "Chaoyang Qu", "short_name": "Chaoyang Qu", "types": ["political", "sublocality", "sublocality_level_1"]}, {"long_name": "Beijing Shi", "short_name": "Beijing Shi", "types": ["administrative_area_level_1", "political"]}, {"long_name": "China", "short_name": "CN", "types": ["country", "political"]}, {"long_name": "100020", "short_name": "100020", "types": ["postal_code"]}], "formatted_address": "10 Chaoyangmen N St, Chaoyang Qu, Beijing Shi, China, 100020", "geometry": {"location": {"lat": 39.929254, "lng": 116.435421}, "location_type": "ROOFTOP", "viewport": {"northeast": {"lat": 39.9306029802915, "lng": 116.4367699802915}, "southwest": {"lat": 39.9279050197085, "lng": 116.4340720197085}}}, "place_id": "ChIJvXnXNNus8TURN4Xl96ZLM-I", "plus_code": {"compound_code": "WCHP+P5 Chaoyang, Beijing, China", "global_code": "8PFRWCHP+P5"}, "types": ["establishment", "point_of_interest"]}], "types": "Government_Sectors"}, {"weighting": "3", "companies": "\u65e5\u672c\u653f\u5e9c", "Address": [{"address_components": [{"long_name": "230", "short_name": "230", "types": ["subpremise"]}, {"long_name": "866", "short_name": "866", "types": ["street_number"]}, {"long_name": "United Nations Plaza", "short_name": "United Nations Plaza", "types": ["route"]}, {"long_name": "Manhattan", "short_name": "Manhattan", "types": ["political", "sublocality", "sublocality_level_1"]}, {"long_name": "New York", "short_name": "New York", "types": ["locality", "political"]}, {"long_name": "New York County", "short_name": "New York County", "types": ["administrative_area_level_2", "political"]}, {"long_name": "New York", "short_name": "NY", "types": ["administrative_area_level_1", "political"]}, {"long_name": "United States", "short_name": "US", "types": ["country", "political"]}, {"long_name": "10017", "short_name": "10017", "types": ["postal_code"]}], "formatted_address": "866 United Nations Plaza #230, New York, NY 10017, USA", "geometry": {"location": {"lat": 40.7524048, "lng": -73.9660299}, "location_type": "ROOFTOP", "viewport": {"northeast": {"lat": 40.7537537802915, "lng": -73.96468091970848}, "southwest": {"lat": 40.7510558197085, "lng": -73.9673788802915}}}, "place_id": "ChIJaxlC9h1ZwokRWMjo1aUT56A", "plus_code": {"compound_code": "Q22M+XH New York, United States", "global_code": "87G8Q22M+XH"}, "types": ["establishment", "point_of_interest"]}], "types": "Government_Sectors"}, {"weighting": "1", "companies": "\u8054\u90a6\u8c03\u67e5\u5c40", "Address": [{"address_components": [{"long_name": "935", "short_name": "935", "types": ["street_number"]}, {"long_name": "Pennsylvania Avenue Northwest", "short_name": "Pennsylvania Ave NW", "types": ["route"]}, {"long_name": "Northwest Washington", "short_name": "Northwest Washington", "types": ["neighborhood", "political"]}, {"long_name": "Washington", "short_name": "Washington", "types": ["locality", "political"]}, {"long_name": "District of Columbia", "short_name": "DC", "types": ["administrative_area_level_1", "political"]}, {"long_name": "United States", "short_name": "US", "types": ["country", "political"]}, {"long_name": "20535", "short_name": "20535", "types": ["postal_code"]}], "formatted_address": "935 Pennsylvania Ave NW, Washington, DC 20535, USA", "geometry": {"location": {"lat": 38.8955927, "lng": -77.02518069999999}, "location_type": "ROOFTOP", "viewport": {"northeast": {"lat": 38.8969416802915, "lng": -77.02383171970848}, "southwest": {"lat": 38.89424371970851, "lng": -77.02652968029149}}}, "place_id": "ChIJeaKWfpq3t4kR6hGEiTZxWQk", "plus_code": {"compound_code": "VXWF+6W Washington, District of Columbia, United States", "global_code": "87C4VXWF+6W"}, "types": ["establishment", "point_of_interest"]}, {"address_components": [{"long_name": "57", "short_name": "57", "types": ["street_number"]}, {"long_name": "Bureau Parkway", "short_name": "Bureau Pkwy", "types": ["route"]}, {"long_name": "Stafford", "short_name": "Stafford", "types": ["locality", "political"]}, {"long_name": "Griffis-Widewater", "short_name": "Griffis-Widewater", "types": ["administrative_area_level_3", "political"]}, {"long_name": "Stafford County", "short_name": "Stafford County", "types": ["administrative_area_level_2", "political"]}, {"long_name": "Virginia", "short_name": "VA", "types": ["administrative_area_level_1", "political"]}, {"long_name": "United States", "short_name": "US", "types": ["country", "political"]}, {"long_name": "22556", "short_name": "22556", "types": ["postal_code"]}], "formatted_address": "57 Bureau Pkwy, Stafford, VA 22556, USA", "geometry": {"location": {"lat": 38.531674, "lng": -77.4451672}, "location_type": "ROOFTOP", "viewport": {"northeast": {"lat": 38.5330229802915, "lng": -77.44381821970849}, "southwest": {"lat": 38.5303250197085, "lng": -77.44651618029151}}}, "place_id": "ChIJk9PHuhPxtokRPOindLaFyqc", "plus_code": {"compound_code": "GHJ3+MW Quantico Station, Quantico, VA, United States", "global_code": "87C4GHJ3+MW"}, "types": ["establishment", "point_of_interest"]}], "types": "Government_Sectors"}, {"weighting": "26", "companies": "\u5168\u56fd\u4eba\u5927\u5e38\u59d4\u4f1a", "Address": [{"address_components": [{"long_name": "\u4eba\u6c11\u5927\u4f1a\u5802\u897f\u8def", "short_name": "\u4eba\u6c11\u5927\u4f1a\u5802\u897f\u8def", "types": ["route"]}, {"long_name": "Xicheng", "short_name": "Xicheng", "types": ["political", "sublocality", "sublocality_level_1"]}, {"long_name": "Beijing", "short_name": "Beijing", "types": ["administrative_area_level_1", "political"]}, {"long_name": "China", "short_name": "CN", "types": ["country", "political"]}], "formatted_address": "China, Beijing, Xicheng, \u4eba\u6c11\u5927\u4f1a\u5802\u897f\u8def\u4eba\u6c11\u5927\u4f1a\u5802", "geometry": {"location": {"lat": 39.903304, "lng": 116.39385}, "location_type": "GEOMETRIC_CENTER", "viewport": {"northeast": {"lat": 39.90465298029149, "lng": 116.3951989802915}, "southwest": {"lat": 39.9019550197085, "lng": 116.3925010197085}}}, "place_id": "ChIJa0eVs5dS8DURKjbXMsWNBJs", "plus_code": {"compound_code": "W93V+8G Xicheng, Beijing, China", "global_code": "8PFRW93V+8G"}, "types": ["establishment", "point_of_interest"]}], "types": "Government_Sectors"}, {"weighting": "3", "companies": "\u4e2d\u5171\u4e2d\u592e\u653f\u6cbb\u5c40", "Address": [{"address_components": [{"long_name": "171\u53f7\u540e\u95e8", "short_name": "171\u53f7\u540e\u95e8", "types": ["street_number"]}, {"long_name": "Yunnan Middle Road", "short_name": "Yunnan Middle Rd", "types": ["route"]}, {"long_name": "Huangpu Qu", "short_name": "Huangpu Qu", "types": ["political", "sublocality", "sublocality_level_1"]}, {"long_name": "Shanghai Shi", "short_name": "Shanghai Shi", "types": ["administrative_area_level_1", "political"]}, {"long_name": "China", "short_name": "CN", "types": ["country", "political"]}, {"long_name": "200000", "short_name": "200000", "types": ["postal_code"]}], "formatted_address": "171\u53f7\u540e\u95e8 Yunnan Middle Rd, Huangpu Qu, Shanghai Shi, China, 200000", "geometry": {"location": {"lat": 31.23181, "lng": 121.477612}, "location_type": "ROOFTOP", "viewport": {"northeast": {"lat": 31.2331589802915, "lng": 121.4789609802915}, "southwest": {"lat": 31.2304610197085, "lng": 121.4762630197085}}}, "place_id": "ChIJdUaYj0JwsjUR95z2JNWgLG4", "plus_code": {"compound_code": "6FJH+P2 Huangpu, Shanghai, China", "global_code": "8Q336FJH+P2"}, "types": ["establishment", "point_of_interest"]}, {"address_components": [{"long_name": "China", "short_name": "CN", "types": ["country", "political"]}], "formatted_address": "China", "geometry": {"bounds": {"northeast": {"lat": 53.5609739, "lng": 134.7754563}, "southwest": {"lat": 17.9996, "lng": 73.4994136}}, "location": {"lat": 35.86166, "lng": 104.195397}, "location_type": "APPROXIMATE", "viewport": {"northeast": {"lat": 53.5609739, "lng": 134.7754563}, "southwest": {"lat": 17.9996, "lng": 73.4994136}}}, "place_id": "ChIJwULG5WSOUDERbzafNHyqHZU", "types": ["country", "political"]}], "types": "Government_Sectors"}, {"weighting": "1", "companies": "\u667a\u5229\u653f\u5e9c", "Address": [{"address_components": [{"long_name": "180", "short_name": "180", "types": ["street_number"]}, {"long_name": "Teatinos", "short_name": "Teatinos", "types": ["route"]}, {"long_name": "Santiago", "short_name": "Santiago", "types": ["locality", "political"]}, {"long_name": "Santiago", "short_name": "Santiago", "types": ["administrative_area_level_3", "political"]}, {"long_name": "Santiago", "short_name": "Santiago", "types": ["administrative_area_level_2", "political"]}, {"long_name": "Regi\u00f3n Metropolitana", "short_name": "Regi\u00f3n Metropolitana", "types": ["administrative_area_level_1", "political"]}, {"long_name": "Chile", "short_name": "CL", "types": ["country", "political"]}], "formatted_address": "Teatinos 180, Santiago, Regi\u00f3n Metropolitana, Chile", "geometry": {"location": {"lat": -33.4414536, "lng": -70.6550926}, "location_type": "ROOFTOP", "viewport": {"northeast": {"lat": -33.44010461970849, "lng": -70.6537436197085}, "southwest": {"lat": -33.44280258029149, "lng": -70.65644158029151}}}, "place_id": "ChIJRy3deabFYpYR2cMJ20lqMRw", "plus_code": {"compound_code": "H85V+CX Santiago, Chile", "global_code": "47RFH85V+CX"}, "types": ["establishment", "point_of_interest"]}, {"address_components": [{"long_name": "550", "short_name": "550", "types": ["street_number"]}, {"long_name": "Avenida Pedro de Valdivia", "short_name": "Av. Pedro de Valdivia", "types": ["route"]}, {"long_name": "Providencia", "short_name": "Providencia", "types": ["locality", "political"]}, {"long_name": "Providencia", "short_name": "Providencia", "types": ["administrative_area_level_3", "political"]}, {"long_name": "Santiago", "short_name": "Santiago", "types": ["administrative_area_level_2", "political"]}, {"long_name": "Regi\u00f3n Metropolitana", "short_name": "Regi\u00f3n Metropolitana", "types": ["administrative_area_level_1", "political"]}, {"long_name": "Chile", "short_name": "CL", "types": ["country", "political"]}], "formatted_address": "Av. Pedro de Valdivia 550, Providencia, Regi\u00f3n Metropolitana, Chile", "geometry": {"location": {"lat": -33.4280805, "lng": -70.6101008}, "location_type": "ROOFTOP", "viewport": {"northeast": {"lat": -33.4267315197085, "lng": -70.60875181970849}, "southwest": {"lat": -33.4294294802915, "lng": -70.6114497802915}}}, "place_id": "ChIJkf0PTmXPYpYRYzwCZKXnIC0", "plus_code": {"compound_code": "H9CQ+QX Santiago, Chile", "global_code": "47RFH9CQ+QX"}, "types": ["embassy", "establishment", "point_of_interest"]}, {"address_components": [{"long_name": "Chile", "short_name": "CL", "types": ["country", "political"]}], "formatted_address": "Chile", "geometry": {"bounds": {"northeast": {"lat": -17.4983291, "lng": -66.3327}, "southwest": {"lat": -56.1455, "lng": -110.0281}}, "location": {"lat": -35.675147, "lng": -71.542969}, "location_type": "APPROXIMATE", "viewport": {"northeast": {"lat": -17.4983291, "lng": -66.3327}, "southwest": {"lat": -56.1455, "lng": -110.0281}}}, "place_id": "ChIJL68lBEHFYpYRHbkCERPhBQU", "types": ["country", "political"]}], "types": "Government_Sectors"}, {"weighting": "34", "companies": "\u7f8e\u56fd\u56fd\u5bb6\u5b89\u5168\u5c40", "Address": [{"address_components": [{"long_name": "6623", "short_name": "6623", "types": ["subpremise"]}, {"long_name": "9800", "short_name": "9800", "types": ["street_number"]}, {"long_name": "Savage Road", "short_name": "Savage Rd", "types": ["route"]}, {"long_name": "Fort Meade", "short_name": "Fort Meade", "types": ["locality", "political"]}, {"long_name": "Hanover", "short_name": "Hanover", "types": ["administrative_area_level_3", "political"]}, {"long_name": "Anne Arundel County", "short_name": "Anne Arundel County", "types": ["administrative_area_level_2", "political"]}, {"long_name": "Maryland", "short_name": "MD", "types": ["administrative_area_level_1", "political"]}, {"long_name": "United States", "short_name": "US", "types": ["country", "political"]}, {"long_name": "20755", "short_name": "20755", "types": ["postal_code"]}], "formatted_address": "9800 Savage Rd #6623, Fort Meade, MD 20755, USA", "geometry": {"location": {"lat": 39.1086634, "lng": -76.7713321}, "location_type": "ROOFTOP", "viewport": {"northeast": {"lat": 39.1100123802915, "lng": -76.76998311970848}, "southwest": {"lat": 39.1073144197085, "lng": -76.7726810802915}}}, "place_id": "ChIJ3fK75Prmt4kR1r1lbha6hNk", "plus_code": {"compound_code": "465H+FF Fort Meade, Hanover, MD, United States", "global_code": "87F5465H+FF"}, "types": ["establishment", "point_of_interest"]}, {"address_components": [{"long_name": "United States", "short_name": "US", "types": ["country", "political"]}], "formatted_address": "United States", "geometry": {"bounds": {"northeast": {"lat": 71.5388001, "lng": -66.885417}, "southwest": {"lat": 18.7763, "lng": 170.5957}}, "location": {"lat": 37.09024, "lng": -95.712891}, "location_type": "APPROXIMATE", "viewport": {"northeast": {"lat": 71.5388001, "lng": -66.885417}, "southwest": {"lat": 18.7763, "lng": 170.5957}}}, "place_id": "ChIJCzYy5IS16lQRQrfeQ5K5Oxw", "types": ["country", "political"]}], "types": "Government_Sectors"}, {"weighting": "10", "companies": "\u56fd\u5b89\u5c40", "Address": [{"address_components": [{"long_name": "6623", "short_name": "6623", "types": ["subpremise"]}, {"long_name": "9800", "short_name": "9800", "types": ["street_number"]}, {"long_name": "Savage Road", "short_name": "Savage Rd", "types": ["route"]}, {"long_name": "Fort Meade", "short_name": "Fort Meade", "types": ["locality", "political"]}, {"long_name": "Hanover", "short_name": "Hanover", "types": ["administrative_area_level_3", "political"]}, {"long_name": "Anne Arundel County", "short_name": "Anne Arundel County", "types": ["administrative_area_level_2", "political"]}, {"long_name": "Maryland", "short_name": "MD", "types": ["administrative_area_level_1", "political"]}, {"long_name": "United States", "short_name": "US", "types": ["country", "political"]}, {"long_name": "20755", "short_name": "20755", "types": ["postal_code"]}], "formatted_address": "9800 Savage Rd #6623, Fort Meade, MD 20755, USA", "geometry": {"location": {"lat": 39.1086634, "lng": -76.7713321}, "location_type": "ROOFTOP", "viewport": {"northeast": {"lat": 39.1100123802915, "lng": -76.76998311970848}, "southwest": {"lat": 39.1073144197085, "lng": -76.7726810802915}}}, "place_id": "ChIJ3fK75Prmt4kR1r1lbha6hNk", "plus_code": {"compound_code": "465H+FF Fort Meade, Hanover, MD, United States", "global_code": "87F5465H+FF"}, "types": ["establishment", "point_of_interest"]}], "types": "Government_Sectors"}, {"weighting": "13", "companies": "\u836f\u76d1\u5c40", "Address": [{"address_components": [{"long_name": "Yuyuantan South Road", "short_name": "Yuyuantan S Rd", "types": ["route"]}, {"long_name": "Haidian Qu", "short_name": "Haidian Qu", "types": ["political", "sublocality", "sublocality_level_1"]}, {"long_name": "Beijing Shi", "short_name": "Beijing Shi", "types": ["administrative_area_level_1", "political"]}, {"long_name": "China", "short_name": "CN", "types": ["country", "political"]}, {"long_name": "100038", "short_name": "100038", "types": ["postal_code"]}], "formatted_address": "Yuyuantan S Rd, Haidian Qu, Beijing Shi, China, 100038", "geometry": {"location": {"lat": 39.910664, "lng": 116.330793}, "location_type": "GEOMETRIC_CENTER", "viewport": {"northeast": {"lat": 39.91201298029149, "lng": 116.3321419802915}, "southwest": {"lat": 39.9093150197085, "lng": 116.3294440197085}}}, "place_id": "ChIJV2_YSgFS8DURtQ1MUMPvqg4", "plus_code": {"compound_code": "W86J+78 Haidian, Beijing, China", "global_code": "8PFRW86J+78"}, "types": ["establishment", "finance", "point_of_interest"]}], "types": "Government_Sectors"}, {"weighting": "1", "companies": "\u6c5f\u897f\u7701\u59d4", "Address": [{"address_components": [{"long_name": "Bayi Avenue", "short_name": "Bayi Ave", "types": ["route"]}, {"long_name": "Donghu Qu", "short_name": "Donghu Qu", "types": ["political", "sublocality", "sublocality_level_1"]}, {"long_name": "Nanchang Shi", "short_name": "Nanchang Shi", "types": ["locality", "political"]}, {"long_name": "Jiangxi Sheng", "short_name": "Jiangxi Sheng", "types": ["administrative_area_level_1", "political"]}, {"long_name": "China", "short_name": "CN", "types": ["country", "political"]}, {"long_name": "330000", "short_name": "330000", "types": ["postal_code"]}], "formatted_address": "Bayi Ave, Donghu Qu, Nanchang Shi, Jiangxi Sheng, China, 330000", "geometry": {"location": {"lat": 28.6750019, "lng": 115.9035597}, "location_type": "GEOMETRIC_CENTER", "viewport": {"northeast": {"lat": 28.6763508802915, "lng": 115.9049086802915}, "southwest": {"lat": 28.6736529197085, "lng": 115.9022107197085}}}, "place_id": "ChIJPzsYp_m4OjQRi-x8uYoyzB8", "plus_code": {"compound_code": "MWG3+2C Donghu, Nanchang, Jiangxi, China", "global_code": "7PWQMWG3+2C"}, "types": ["establishment", "point_of_interest"]}], "types": "Government_Sectors"}, {"weighting": "2", "companies": "\u4e2d\u592e\u653f\u6cbb\u5c40", "Address": [{"address_components": [{"long_name": "171\u53f7\u540e\u95e8", "short_name": "171\u53f7\u540e\u95e8", "types": ["street_number"]}, {"long_name": "Yunnan Middle Road", "short_name": "Yunnan Middle Rd", "types": ["route"]}, {"long_name": "Huangpu Qu", "short_name": "Huangpu Qu", "types": ["political", "sublocality", "sublocality_level_1"]}, {"long_name": "Shanghai Shi", "short_name": "Shanghai Shi", "types": ["administrative_area_level_1", "political"]}, {"long_name": "China", "short_name": "CN", "types": ["country", "political"]}, {"long_name": "200000", "short_name": "200000", "types": ["postal_code"]}], "formatted_address": "171\u53f7\u540e\u95e8 Yunnan Middle Rd, Huangpu Qu, Shanghai Shi, China, 200000", "geometry": {"location": {"lat": 31.23181, "lng": 121.477612},